_id,RSN,YEAR_REGISTERED,YEAR_EVALUATED,YEAR_BUILT,PROPERTY_TYPE,WARD,WARDNAME,SITE_ADDRESS,CONFIRMED_STOREYS,CONFIRMED_UNITS,EVALUATION_COMPLETED_ON,SCORE,RESULTS_OF_SCORE,NO_OF_AREAS_EVALUATED,ENTRANCE_LOBBY,ENTRANCE_DOORS_WINDOWS,SECURITY,STAIRWELLS,LAUNDRY_ROOMS,INTERNAL_GUARDS_HANDRAILS,GARBAGE_CHUTE_ROOMS,GARBAGE_BIN_STORAGE_AREA,ELEVATORS,STORAGE_AREAS_LOCKERS,INTERIOR_WALL_CEILING_FLOOR,INTERIOR_LIGHTING_LEVELS,GRAFFITI,EXTERIOR_CLADDING,EXTERIOR_GROUNDS,EXTERIOR_WALKWAYS,BALCONY_GUARDS,WATER_PEN_EXT_BLDG_ELEMENTS,PARKING_AREA,OTHER_FACILITIES,GRID,LATITUDE,LONGITUDE,X,Y
131161,4937758,2021.0,2021,1940.0,PRIVATE,11,University-Rosedale,424 YONGE ST,10,210,2021-06-22,81,Evaluation needs to be conducted in 3 years,16,5.0,4.0,3.0,4.0,4.0,5.0,3.0,3.0,5.0,,4.0,4.0,5.0,4.0,4.0,4.0,,4.0,,,S1145,43.6604990067,-79.3839774936,314228.403,4835355.504
131162,4915028,2021.0,2021,2021.0,PRIVATE,11,University-Rosedale,484 SPADINA AVE,16,166,2021-06-22,99,Evaluation needs to be conducted in 3 years,17,5.0,5.0,5.0,5.0,,5.0,5.0,4.0,5.0,,5.0,5.0,5.0,5.0,5.0,5.0,5.0,5.0,5.0,,S1138,43.6582941155,-79.40075313850001,312789.392,4835153.945
131163,4154086,2017.0,2021,1986.0,TCHC,14,Toronto-Danforth,266 DONLANDS AVE,8,254,2021-05-14,78,Evaluation needs to be conducted in 2 years,18,4.0,4.0,4.0,3.0,4.0,4.0,4.0,4.0,4.0,,3.0,4.0,4.0,4.0,4.0,4.0,4.0,4.0,4.0,,S1422,43.6896562892,-79.3419083036,317529.06899999996,4838645.48
131164,4155609,2017.0,2021,1970.0,TCHC,14,Toronto-Danforth,2 PHIN AVE,3,34,2021-05-14,71,Evaluation needs to be conducted in 2 years,15,3.0,4.0,3.0,3.0,3.0,4.0,,4.0,,4.0,3.0,3.0,4.0,4.0,4.0,4.0,,3.0,,,S1431,43.6788050577,-79.33587160260001,318018.089,4837440.899
131165,4155471,2017.0,2021,1992.0,TCHC,3,Etobicoke-Lakeshore,98 CAVELL AVE,6,100,2021-05-12,75,Evaluation needs to be conducted in 2 years,16,4.0,4.0,4.0,3.0,3.0,4.0,4.0,4.0,4.0,,2.0,4.0,4.0,5.0,4.0,3.0,,4.0,,,W0336,43.616184073999996,-79.49590117,305111.3,4830450.134
131166,4155654,2017.0,2021,1962.0,TCHC,3,Etobicoke-Lakeshore,5005 DUNDAS ST W,19,255,2021-05-12,69,Evaluation needs to be conducted in 2 years,18,4.0,4.0,4.0,2.0,3.0,4.0,4.0,4.0,3.0,,2.0,4.0,2.0,4.0,4.0,4.0,3.0,3.0,4.0,,W0321,43.6460539737,-79.53072049149999,302305.928,4833790.048
131167,4155514,2017.0,2021,1960.0,PRIVATE,3,Etobicoke-Lakeshore,8 LAKE SHORE DR,3,11,2021-05-11,59,Evaluation needs to be conducted in 1 year,14,3.0,4.0,2.0,2.0,3.0,3.0,,3.0,,,2.0,3.0,3.0,3.0,4.0,3.0,,3.0,,,W0335,43.6015075472,-79.49800545229999,304945.349,4828840.676
131168,4156070,2017.0,2021,1992.0,SOCIAL HOUSING,1,Etobicoke North,2715 ISLINGTON AVE,5,80,2021-05-06,86,Evaluation needs to be conducted in 3 years,19,4.0,4.0,5.0,5.0,4.0,5.0,4.0,5.0,4.0,4.0,4.0,5.0,5.0,4.0,4.0,3.0,4.0,5.0,4.0,,W0126,43.7416736933,-79.566398634,299387.542,4844393.19
131169,4156089,2017.0,2021,1977.0,PRIVATE,2,Etobicoke Centre,290 THE KINGSWAY,4,22,2021-05-06,78,Evaluation needs to be conducted in 2 years,16,4.0,4.0,5.0,4.0,4.0,2.0,,3.0,,4.0,4.0,4.0,5.0,4.0,5.0,4.0,,4.0,2.0,,W0229,43.663351284799994,-79.5210336725,303087.922,4835711.443
131170,4156447,2017.0,2021,1977.0,PRIVATE,2,Etobicoke Centre,292 THE KINGSWAY,4,22,2021-05-06,74,Evaluation needs to be conducted in 2 years,16,4.0,4.0,5.0,3.0,4.0,2.0,,3.0,,4.0,3.0,4.0,5.0,4.0,4.0,4.0,,4.0,2.0,,W0229,43.6634977142,-79.521320335,303064.81,4835727.717
131171,4155469,2017.0,2021,1972.0,TCHC,3,Etobicoke-Lakeshore,340 ROYAL YORK RD,16,307,2021-05-06,78,Evaluation needs to be conducted in 2 years,17,4.0,4.0,4.0,3.0,4.0,4.0,4.0,3.0,4.0,,3.0,4.0,5.0,4.0,4.0,4.0,4.0,4.0,,,W0332,43.6169208542,-79.49934613100001,304837.091,4830553.024
131172,4155274,2019.0,2021,1958.0,PRIVATE,3,Etobicoke-Lakeshore,22 RIVERWOOD PKWY,4,44,2021-05-06,69,Evaluation needs to be conducted in 2 years,14,3.0,4.0,4.0,3.0,4.0,3.0,,4.0,,,2.0,4.0,5.0,3.0,3.0,3.0,,3.0,,,W0327,43.6388094067,-79.489549092,305627.568,4832984.75
131173,4153113,2017.0,2021,1930.0,PRIVATE,9,Davenport,921 ST CLAIR AVE W,4,23,2021-05-05,78,Evaluation needs to be conducted in 2 years,16,3.0,3.0,5.0,4.0,4.0,3.0,,4.0,,4.0,4.0,3.0,5.0,4.0,4.0,4.0,,4.0,4.0,,S0928,43.679612972700006,-79.4343222081,310079.882,4837519.722
131174,4153114,2017.0,2021,1957.0,PRIVATE,9,Davenport,917 ST CLAIR AVE W,3,16,2021-05-05,71,Evaluation needs to be conducted in 2 years,16,3.0,4.0,3.0,3.0,4.0,4.0,,4.0,,3.0,3.0,3.0,4.0,3.0,4.0,4.0,,4.0,4.0,,S0928,43.6796525284,-79.4341336625,310095.081,4837524.129
131175,4155504,2017.0,2021,1955.0,PRIVATE,3,Etobicoke-Lakeshore,2507 LAKE SHORE BLVD W,3,21,2021-05-05,45,Building Audit,15,2.0,2.0,2.0,2.0,2.0,2.0,,3.0,,2.0,2.0,1.0,3.0,3.0,2.0,3.0,,3.0,,,W0336,43.6119437281,-79.4894785843,305633.594,4830000.121
131176,4155502,2019.0,2021,1955.0,PRIVATE,3,Etobicoke-Lakeshore,2517 LAKE SHORE BLVD W,4,42,2021-05-05,57,Evaluation needs to be conducted in 1 year,15,3.0,3.0,3.0,3.0,3.0,4.0,,1.0,,,2.0,3.0,3.0,3.0,3.0,3.0,3.0,3.0,,,W0336,43.611248843599995,-79.4897028689,305617.985,4829937.637
131177,4153161,,2021,1926.0,PRIVATE,9,Davenport,1121 BLOOR ST W,4,11,2021-05-05,68,Evaluation needs to be conducted in 2 years,15,3.0,3.0,3.0,3.0,,3.0,,4.0,,3.0,3.0,4.0,4.0,4.0,3.0,3.0,,4.0,4.0,,S0934,43.659766697799995,-79.4348680192,310037.689,4835314.866
131178,4153112,2017.0,2021,1930.0,PRIVATE,9,Davenport,923 ST CLAIR AVE W,4,24,2021-05-05,78,Evaluation needs to be conducted in 2 years,16,3.0,3.0,5.0,4.0,4.0,3.0,,4.0,,4.0,4.0,3.0,5.0,4.0,4.0,4.0,,4.0,4.0,,S0928,43.6795652357,-79.4345112222,310064.646,4837514.406
131179,4153111,2017.0,2021,1930.0,PRIVATE,9,Davenport,925 ST CLAIR AVE W,4,24,2021-05-05,74,Evaluation needs to be conducted in 2 years,16,3.0,3.0,4.0,4.0,3.0,3.0,,4.0,,4.0,3.0,3.0,5.0,4.0,4.0,4.0,,4.0,4.0,,S0928,43.6795294913,-79.4347109535,310048.545,4837510.422
131180,4153115,2017.0,2021,1930.0,PRIVATE,9,Davenport,109 GLENHOLME AVE,3,15,2021-05-05,81,Evaluation needs to be conducted in 3 years,14,4.0,4.0,4.0,4.0,,4.0,,,,4.0,4.0,4.0,5.0,4.0,4.0,4.0,,4.0,4.0,,S0928,43.6786824154,-79.4384961713,309743.43100000004,4837416.085
131181,4153116,2017.0,2021,1951.0,PRIVATE,9,Davenport,1095 ST CLAIR AVE W,3,11,2021-05-05,64,Evaluation needs to be conducted in 1 year,15,3.0,4.0,3.0,3.0,,3.0,,3.0,,,3.0,3.0,3.0,3.0,3.0,3.0,3.0,4.0,4.0,,S0928,43.678255875,-79.4404625992,309584.915,4837368.586
131182,4152925,2017.0,2021,1994.0,TCHC,9,Davenport,11 RANDOLPH AVE,6,95,2021-05-05,74,Evaluation needs to be conducted in 2 years,18,4.0,3.0,4.0,3.0,4.0,4.0,,4.0,3.0,4.0,3.0,4.0,5.0,4.0,3.0,4.0,3.0,4.0,4.0,,S0929,43.658298977200005,-79.4502110226,308800.29,4835150.998
131183,4153153,2018.0,2021,1925.0,PRIVATE,9,Davenport,34 HEYDON PARK RD,3,31,2021-05-05,73,Evaluation needs to be conducted in 2 years,15,4.0,3.0,3.0,3.0,4.0,4.0,,4.0,,,3.0,4.0,5.0,4.0,3.0,3.0,,4.0,4.0,,S0934,43.652977027700004,-79.42702579430001,310670.881,4834561.084
131184,4152924,2017.0,2021,1992.0,TCHC,9,Davenport,77 RANKIN CRES,7,121,2021-05-05,73,Evaluation needs to be conducted in 2 years,19,4.0,3.0,4.0,3.0,3.0,4.0,3.0,4.0,4.0,,3.0,3.0,5.0,4.0,4.0,4.0,3.0,4.0,4.0,3.0,S0929,43.658340191,-79.446051646,309135.503,4835156.725
131185,4155014,2017.0,2021,1952.0,PRIVATE,9,Davenport,345 WESTMOUNT AVE,3,29,2021-05-05,71,Evaluation needs to be conducted in 2 years,14,3.0,4.0,4.0,3.0,,3.0,,4.0,,,3.0,3.0,4.0,4.0,4.0,3.0,,4.0,4.0,,S0925,43.684414026800006,-79.4441626996,309286.131,4838052.524
131186,4155764,2019.0,2021,1955.0,PRIVATE,3,Etobicoke-Lakeshore,1 A BIRCHLEA AVE,3,21,2021-05-05,37,Building Audit,14,2.0,2.0,3.0,1.0,1.0,2.0,,2.0,,,1.0,1.0,3.0,2.0,2.0,2.0,,2.0,,,W0334,43.592762174499995,-79.527405433,302571.59,4827869.423
131187,4153108,2018.0,2021,,PRIVATE,9,Davenport,156 BRANDON AVE,4,19,2021-05-05,67,Evaluation needs to be conducted in 2 years,14,3.0,3.0,3.0,3.0,,4.0,,3.0,,,3.0,3.0,5.0,4.0,3.0,3.0,,4.0,3.0,,S0927,43.669233242,-79.44593058699999,309144.453,4836366.875
131188,4153106,2017.0,2021,1992.0,SOCIAL HOUSING,9,Davenport,223 OSLER ST,4,13,2021-05-05,64,Evaluation needs to be conducted in 1 year,18,3.0,3.0,4.0,3.0,3.0,3.0,3.0,3.0,,,3.0,3.0,4.0,3.0,3.0,4.0,4.0,3.0,3.0,3.0,S0926,43.669760121,-79.458975993,308092.381,4836424.835
131189,4155373,2017.0,2021,1966.0,PRIVATE,2,Etobicoke Centre,340 THE EAST MALL,8,77,2021-05-04,84,Evaluation needs to be conducted in 3 years,19,4.0,5.0,5.0,4.0,5.0,4.0,,4.0,4.0,4.0,4.0,5.0,5.0,4.0,5.0,3.0,4.0,4.0,3.0,4.0,W0234,43.639211983,-79.55727457399999,300163.043,4833031.882
131190,4155506,2017.0,2021,1960.0,PRIVATE,3,Etobicoke-Lakeshore,2660 LAKE SHORE BLVD W,4,15,2021-05-04,70,Evaluation needs to be conducted in 2 years,14,3.0,4.0,4.0,3.0,4.0,2.0,,3.0,,,4.0,4.0,4.0,3.0,4.0,4.0,,3.0,,,W0335,43.6035699967,-79.4939393682,305273.57899999997,4829069.811000001
131191,4155507,2017.0,2021,1955.0,PRIVATE,3,Etobicoke-Lakeshore,2666 LAKE SHORE BLVD W,4,16,2021-05-04,69,Evaluation needs to be conducted in 2 years,14,3.0,3.0,4.0,4.0,4.0,2.0,,3.0,,,3.0,4.0,4.0,3.0,4.0,4.0,,3.0,,,W0335,43.6034395527,-79.4942895822,305245.309,4829055.318
131192,4356717,2018.0,2021,1954.0,PRIVATE,3,Etobicoke-Lakeshore,177 STEPHEN DR,4,44,2021-05-04,69,Evaluation needs to be conducted in 2 years,17,4.0,4.0,4.0,4.0,4.0,4.0,,3.0,4.0,2.0,2.0,4.0,4.0,3.0,4.0,4.0,3.0,2.0,,,W0327,43.639915396999996,-79.487892324,305761.06,4833089.217
131193,4356415,2018.0,2021,1954.0,PRIVATE,3,Etobicoke-Lakeshore,173 STEPHEN DR,6,13,2021-05-04,79,Evaluation needs to be conducted in 2 years,16,4.0,4.0,4.0,4.0,4.0,4.0,,3.0,4.0,,4.0,3.0,5.0,4.0,4.0,4.0,4.0,4.0,,,W0327,43.6396535446,-79.487507425,305766.456,4833070.166
131194,4155707,2017.0,2021,1970.0,TCHC,2,Etobicoke Centre,27 SCARLETTWOOD CRT,3,14,2021-05-04,67,Evaluation needs to be conducted in 2 years,17,3.0,3.0,4.0,2.0,3.0,4.0,,3.0,,3.0,3.0,5.0,5.0,3.0,2.0,3.0,4.0,4.0,3.0,,W0224,43.693274018000004,-79.516001007,303494.335,4839036.572
131195,4885483,2021.0,2021,2017.0,PRIVATE,11,University-Rosedale,2 ST THOMAS ST,26,248,2021-05-04,100,Evaluation needs to be conducted in 3 years,19,5.0,5.0,5.0,5.0,5.0,5.0,5.0,5.0,5.0,5.0,5.0,5.0,5.0,5.0,5.0,5.0,5.0,5.0,5.0,,S1136,43.668117872399996,-79.39082961439999,313588.375,4836246.356000001
131196,4156285,2017.0,2021,1956.0,PRIVATE,2,Etobicoke Centre,319 THE KINGSWAY,3,21,2021-05-04,74,Evaluation needs to be conducted in 2 years,16,4.0,4.0,5.0,3.0,4.0,3.0,,3.0,,4.0,4.0,3.0,5.0,4.0,3.0,3.0,,4.0,3.0,,W0229,43.665207485500005,-79.5235149281,302887.88899999997,4835917.715
131197,4155236,2017.0,2021,1956.0,PRIVATE,3,Etobicoke-Lakeshore,2 NEWHOLM RD,4,51,2021-05-03,74,Evaluation needs to be conducted in 2 years,17,4.0,3.0,4.0,4.0,3.0,4.0,,4.0,,3.0,3.0,3.0,5.0,4.0,4.0,3.0,4.0,4.0,4.0,,W0329,43.6360380172,-79.48840230260001,305720.128,4832676.874
131198,4155267,2017.0,2021,1954.0,PRIVATE,3,Etobicoke-Lakeshore,10 HILL HEIGHTS RD,4,34,2021-05-03,69,Evaluation needs to be conducted in 2 years,17,4.0,4.0,5.0,3.0,2.0,4.0,,3.0,,4.0,3.0,3.0,5.0,2.0,4.0,3.0,4.0,3.0,3.0,,W0327,43.639073561000004,-79.4920727048,305423.94,4833014.077
131199,4155333,2017.0,2021,1955.0,PRIVATE,2,Etobicoke Centre,15 ANGLESEY BLVD,3,41,2021-05-03,84,Evaluation needs to be conducted in 3 years,16,4.0,4.0,5.0,4.0,5.0,3.0,,3.0,,4.0,5.0,4.0,5.0,5.0,5.0,4.0,,5.0,2.0,,W0229,43.6641882866,-79.5210515699,303086.51,4835804.43
131200,4155317,2017.0,2021,1958.0,PRIVATE,2,Etobicoke Centre,14-16 ANGLESEY BLVD,4,24,2021-05-03,75,Evaluation needs to be conducted in 2 years,16,3.0,4.0,5.0,3.0,4.0,3.0,,3.0,,4.0,3.0,4.0,5.0,4.0,5.0,2.0,,4.0,4.0,,W0229,43.6652491637,-79.52117214020001,303076.82399999996,4835922.29
131201,4155257,2017.0,2021,1968.0,PRIVATE,3,Etobicoke-Lakeshore,5 HILL HEIGHTS RD,5,36,2021-05-03,83,Evaluation needs to be conducted in 3 years,18,5.0,5.0,5.0,4.0,4.0,3.0,,4.0,4.0,4.0,5.0,4.0,4.0,4.0,5.0,5.0,3.0,4.0,3.0,,W0327,43.638458523599994,-79.4925019413,305389.291,4832945.746
131202,4153389,2018.0,2021,1993.0,SOCIAL HOUSING,13,Toronto Centre,110 THE ESPLANADE,9,205,2021-05-03,82,Evaluation needs to be conducted in 3 years,17,4.0,4.0,5.0,4.0,4.0,4.0,4.0,4.0,4.0,,4.0,4.0,5.0,4.0,4.0,4.0,4.0,4.0,,,S1339,43.6480302618,-79.3723912336,315078.766,4834016.84
131203,4155246,2017.0,2021,1956.0,PRIVATE,3,Etobicoke-Lakeshore,2 KINSDALE BLVD,4,45,2021-05-03,84,Evaluation needs to be conducted in 3 years,17,4.0,4.0,4.0,3.0,4.0,4.0,,3.0,,4.0,4.0,4.0,5.0,5.0,5.0,5.0,5.0,5.0,3.0,,W0329,43.637018605,-79.488272958,305733.855,4832772.095
131204,4155238,2017.0,2021,1953.0,PRIVATE,3,Etobicoke-Lakeshore,4 KINSDALE BLVD,4,42,2021-05-03,69,Evaluation needs to be conducted in 2 years,16,3.0,4.0,5.0,2.0,3.0,4.0,,4.0,,,2.0,3.0,4.0,3.0,4.0,3.0,4.0,3.0,4.0,,W0329,43.636181771000004,-79.48992422,305597.035,4832693.783
131205,4155229,2017.0,2021,1956.0,PRIVATE,3,Etobicoke-Lakeshore,5 KINSDALE BLVD,4,22,2021-05-03,74,Evaluation needs to be conducted in 2 years,17,4.0,5.0,4.0,4.0,3.0,2.0,,4.0,,3.0,4.0,4.0,5.0,3.0,5.0,3.0,3.0,4.0,3.0,,W0329,43.635353724,-79.49124561,305490.661,4832600.828
131206,4155255,2017.0,2021,1954.0,PRIVATE,3,Etobicoke-Lakeshore,1 HILL HEIGHTS RD,4,30,2021-05-03,79,Evaluation needs to be conducted in 2 years,17,4.0,5.0,4.0,3.0,4.0,4.0,,4.0,,3.0,4.0,4.0,4.0,4.0,5.0,5.0,4.0,4.0,2.0,,W0327,43.638061568299996,-79.4937696446,305286.99,4832901.638
131207,4155242,2017.0,2021,1959.0,PRIVATE,3,Etobicoke-Lakeshore,10 KINSDALE BLVD,4,23,2021-05-03,71,Evaluation needs to be conducted in 2 years,17,4.0,4.0,4.0,3.0,4.0,3.0,,4.0,,3.0,4.0,4.0,5.0,3.0,2.0,4.0,4.0,3.0,2.0,,W0329,43.635816471999995,-79.491575949,305463.99600000004,4832652.234
131208,4155351,2017.0,2021,1995.0,SOCIAL HOUSING,2,Etobicoke Centre,1447 ROYAL YORK RD,4,108,2021-05-03,92,Evaluation needs to be conducted in 3 years,17,5.0,5.0,5.0,5.0,4.0,5.0,5.0,4.0,4.0,,4.0,5.0,5.0,5.0,4.0,4.0,,5.0,4.0,,W0224,43.6865275325,-79.5276550192,302554.88300000003,4838286.392
131209,4153515,2017.0,2021,1994.0,TCHC,13,Toronto Centre,21 ST JOSEPH ST,5,35,2021-04-30,83,Evaluation needs to be conducted in 3 years,18,4.0,4.0,5.0,5.0,5.0,5.0,4.0,4.0,5.0,,4.0,4.0,5.0,3.0,4.0,4.0,3.0,3.0,4.0,,S1321,43.665635432399995,-79.386388138,313946.94899999996,4835971.066000001
131210,4155117,2017.0,2021,1970.0,PRIVATE,5,York South-Weston,5 GREENTREE CRT,3,17,2021-04-30,70,Evaluation needs to be conducted in 2 years,16,3.0,3.0,5.0,3.0,3.0,3.0,,4.0,,3.0,3.0,4.0,5.0,3.0,4.0,3.0,,4.0,3.0,,W0532,43.692263947200004,-79.4789792359,306478.974,4838923.358
131211,4156744,2018.0,2021,1945.0,PRIVATE,9,Davenport,36 ROSECLIFFE AVE,4,26,2021-04-30,71,Evaluation needs to be conducted in 2 years,13,3.0,3.0,5.0,3.0,,3.0,,4.0,,,3.0,4.0,5.0,3.0,3.0,4.0,,3.0,,,S0925,43.683961366000005,-79.443796242,309315.445,4838003.208000001
131212,4153857,2017.0,2021,1987.0,TCHC,15,Don Valley West,2567 YONGE ST,6,105,2021-04-30,74,Evaluation needs to be conducted in 2 years,17,3.0,4.0,4.0,3.0,4.0,3.0,4.0,4.0,4.0,,3.0,2.0,5.0,4.0,4.0,4.0,,5.0,3.0,,N1526,43.714048186499994,-79.3993963134,312891.412,4841348.24
131213,4153859,2017.0,2021,1937.0,TCHC,15,Don Valley West,2745 YONGE ST,4,41,2021-04-30,71,Evaluation needs to be conducted in 2 years,15,4.0,4.0,4.0,3.0,,3.0,3.0,4.0,,,3.0,3.0,4.0,4.0,3.0,4.0,,4.0,3.0,,N1526,43.7180441891,-79.4001039683,312833.856,4841792.101
131214,4153860,2017.0,2021,1970.0,TCHC,15,Don Valley West,2765 YONGE ST,4,31,2021-04-30,73,Evaluation needs to be conducted in 2 years,16,4.0,4.0,5.0,3.0,3.0,3.0,4.0,3.0,,,3.0,3.0,5.0,4.0,4.0,3.0,,4.0,3.0,,N1526,43.7184879937,-79.40010634069999,312833.606,4841841.405
131215,4153644,2017.0,2021,1996.0,SOCIAL HOUSING,14,Toronto-Danforth,1119 GERRARD ST E,5,29,2021-04-30,74,Evaluation needs to be conducted in 2 years,17,4.0,4.0,5.0,4.0,4.0,3.0,4.0,3.0,4.0,,3.0,4.0,4.0,4.0,3.0,3.0,,4.0,3.0,,S1438,43.669550576099994,-79.33319415449999,318246.299,4836419.586
131216,4155626,2017.0,2021,1957.0,TCHC,8,Eglinton-Lawrence,5 LEILA LANE,3,31,2021-04-30,69,Evaluation needs to be conducted in 2 years,16,2.0,4.0,5.0,3.0,4.0,4.0,,4.0,4.0,,2.0,3.0,5.0,3.0,2.0,3.0,,3.0,4.0,,N0823,43.721282345,-79.44523975,309196.44899999996,4842149.3319999995
131217,4153568,2017.0,2021,1992.0,SOCIAL HOUSING,13,Toronto Centre,205 PARLIAMENT ST,6,16,2021-04-30,89,Evaluation needs to be conducted in 3 years,18,4.0,5.0,5.0,5.0,5.0,5.0,,4.0,4.0,,4.0,5.0,5.0,4.0,4.0,4.0,4.0,4.0,4.0,5.0,S1330,43.656443931000005,-79.364457056,315717.036,4834953.523
131218,4154566,2017.0,2021,1960.0,PRIVATE,8,Eglinton-Lawrence,96 MULHOLLAND AVE,3,11,2021-04-30,69,Evaluation needs to be conducted in 2 years,15,2.0,4.0,4.0,2.0,3.0,3.0,,4.0,,,2.0,4.0,5.0,4.0,4.0,4.0,,4.0,3.0,,N0823,43.7207064297,-79.4552747615,308388.209,4842083.9180000005
131219,4155595,2017.0,2021,1996.0,TCHC,10,Spadina-Fort York,1 CHURCH ST,13,115,2021-04-30,87,Evaluation needs to be conducted in 3 years,18,4.0,4.0,5.0,4.0,4.0,4.0,5.0,4.0,4.0,,4.0,5.0,5.0,5.0,4.0,5.0,,4.0,4.0,4.0,S1038,43.647032851599995,-79.3728697107,315040.337,4833905.973999999
131220,4155641,2017.0,2021,1957.0,TCHC,8,Eglinton-Lawrence,51 BLOSSOMFIELD DR,4,30,2021-04-30,67,Evaluation needs to be conducted in 2 years,15,3.0,3.0,4.0,2.0,4.0,3.0,,3.0,,,2.0,3.0,5.0,3.0,3.0,4.0,,4.0,4.0,,N0823,43.718564843500005,-79.44814255760001,308963.0,4841846.317
131221,4155914,2017.0,2021,1992.0,TCHC,8,Eglinton-Lawrence,3036 BATHURST ST,7,160,2021-04-30,73,Evaluation needs to be conducted in 2 years,18,4.0,4.0,5.0,3.0,3.0,3.0,4.0,4.0,4.0,,3.0,3.0,4.0,4.0,3.0,3.0,4.0,4.0,4.0,,N0827,43.718503226,-79.429840681,310431.385,4841846.135
131222,4154679,2017.0,2021,1953.0,PRIVATE,8,Eglinton-Lawrence,2135 AVENUE RD,3,54,2021-04-30,74,Evaluation needs to be conducted in 2 years,16,4.0,4.0,5.0,3.0,3.0,4.0,,3.0,4.0,,3.0,3.0,5.0,3.0,3.0,4.0,,4.0,4.0,,N0824,43.739166681099995,-79.42089963859999,311155.974,4844136.782
131223,4153617,2017.0,2021,1955.0,PRIVATE,14,Toronto-Danforth,856-858 BROADVIEW AVE,4,23,2021-04-30,66,Evaluation needs to be conducted in 2 years,14,3.0,3.0,4.0,3.0,3.0,3.0,,3.0,,,3.0,4.0,4.0,3.0,3.0,4.0,,3.0,,,S1424,43.679280285,-79.358423286,316192.655,4837481.068
131224,4156004,2018.0,2021,1945.0,PRIVATE,9,Davenport,34 ROSECLIFFE AVE,4,26,2021-04-30,67,Evaluation needs to be conducted in 2 years,15,3.0,3.0,5.0,3.0,2.0,3.0,,4.0,,2.0,3.0,4.0,5.0,3.0,3.0,4.0,,3.0,,,S0925,43.683920089,-79.44397293600001,309292.74600000004,4837996.205
131225,4270170,2017.0,2021,1972.0,PRIVATE,11,University-Rosedale,88 BLOOR ST E,25,336,2021-04-29,80,Evaluation needs to be conducted in 2 years,17,5.0,5.0,5.0,4.0,4.0,3.0,3.0,3.0,3.0,3.0,4.0,5.0,5.0,4.0,4.0,4.0,,4.0,,,S1129,43.67085484850001,-79.3850117463,314057.161,4836551.058999999
131226,4569135,2019.0,2021,1956.0,PRIVATE,14,Toronto-Danforth,135 SAMMON AVE,3,11,2021-04-29,66,Evaluation needs to be conducted in 2 years,16,3.0,4.0,3.0,3.0,3.0,3.0,,4.0,,3.0,3.0,3.0,5.0,3.0,3.0,3.0,,4.0,3.0,,S1422,43.6850791771,-79.3423568405,317493.881,4838136.9180000005
131227,4152634,2017.0,2021,1959.0,PRIVATE,21,Scarborough Centre,5 RANNOCK ST,4,28,2021-04-29,78,Evaluation needs to be conducted in 2 years,16,5.0,3.0,3.0,4.0,3.0,4.0,,3.0,,,3.0,3.0,5.0,5.0,4.0,3.0,5.0,5.0,4.0,,E2131,43.7284977107,-79.2991802272,320963.145,4842968.046
131228,4153652,2018.0,2021,1922.0,PRIVATE,14,Toronto-Danforth,796 CARLAW AVE,4,31,2021-04-29,58,Evaluation needs to be conducted in 1 year,13,3.0,3.0,4.0,3.0,,3.0,,3.0,,,3.0,3.0,2.0,3.0,3.0,3.0,,2.0,,,S1425,43.678845919,-79.34781782399999,317054.646,4837444.5819999995
131229,4153592,2017.0,2021,1910.0,PRIVATE,13,Toronto Centre,2 PROSPECT ST,4,15,2021-04-29,71,Evaluation needs to be conducted in 2 years,15,3.0,4.0,4.0,3.0,2.0,3.0,,4.0,,,3.0,4.0,5.0,3.0,3.0,5.0,3.0,4.0,,,S1323,43.6667667454,-79.3716022421,315139.21,4836098.467
131230,4153646,2017.0,2021,1981.0,TCHC,14,Toronto-Danforth,369 PAPE AVE,8,139,2021-04-29,81,Evaluation needs to be conducted in 3 years,19,4.0,4.0,5.0,4.0,4.0,5.0,3.0,3.0,4.0,,3.0,5.0,4.0,4.0,4.0,4.0,4.0,4.0,4.0,5.0,S1430,43.6698117311,-79.3407107259,317629.833,4836441.05
131231,4288772,2017.0,2021,1996.0,SOCIAL HOUSING,14,Toronto-Danforth,55 PAPE AVE,5,60,2021-04-29,64,Evaluation needs to be conducted in 1 year,18,3.0,3.0,3.0,3.0,3.0,3.0,3.0,3.0,4.0,,3.0,4.0,5.0,3.0,3.0,3.0,3.0,3.0,3.0,,S1441,43.660465246,-79.33700731399999,317932.285,4835415.853999999
131232,4155900,2017.0,2021,1895.0,PRIVATE,11,University-Rosedale,88 OXFORD ST,4,11,2021-04-29,67,Evaluation needs to be conducted in 2 years,14,3.0,3.0,4.0,3.0,4.0,2.0,,4.0,,,4.0,3.0,5.0,4.0,3.0,3.0,,2.0,,,S1143,43.6558571434,-79.404684729,312472.609,4834882.84
131233,4604174,,2021,,PRIVATE,14,Toronto-Danforth,160 FLOYD AVE,3,12,2021-04-29,60,Evaluation needs to be conducted in 1 year,14,3.0,3.0,2.0,3.0,,3.0,,3.0,,,3.0,2.0,5.0,3.0,3.0,3.0,,3.0,3.0,,S1421,43.687577379,-79.34848109100001,316999.391,4838414.515
131234,4154602,2017.0,2021,1950.0,PRIVATE,6,York Centre,4110 BATHURST ST,3,16,2021-04-29,62,Evaluation needs to be conducted in 1 year,18,3.0,3.0,3.0,3.0,3.0,3.0,,4.0,1.0,3.0,3.0,4.0,5.0,3.0,3.0,3.0,3.0,3.0,3.0,,N0629,43.74586214,-79.4365128127,309897.822,4844879.562
131235,4890985,2021.0,2021,2019.0,PRIVATE,10,Spadina-Fort York,1100 KING ST W,35,506,2021-04-29,99,Evaluation needs to be conducted in 3 years,20,5.0,5.0,5.0,5.0,5.0,5.0,5.0,5.0,5.0,5.0,5.0,5.0,5.0,5.0,4.0,5.0,5.0,5.0,5.0,5.0,S1026,,,310980.728,4833129.695
131236,4156726,2017.0,2021,2012.0,SOCIAL HOUSING,13,Toronto Centre,40 OAK ST,4,87,2021-04-29,65,Evaluation needs to be conducted in 1 year,17,3.0,4.0,4.0,3.0,4.0,3.0,3.0,3.0,3.0,,3.0,4.0,2.0,4.0,3.0,3.0,,3.0,,3.0,S1330,,,315649.499,4835505.392
131237,4153049,2017.0,2021,1969.0,PRIVATE,4,Parkdale-High Park,246 RONCESVALLES AVE,3,22,2021-04-29,76,Evaluation needs to be conducted in 2 years,15,3.0,4.0,4.0,3.0,3.0,4.0,,3.0,,4.0,4.0,4.0,5.0,4.0,4.0,4.0,,4.0,,,S0432,43.64608157479999,-79.4494284901,308864.225,4833793.7530000005
131238,4152915,2017.0,2021,1923.0,PRIVATE,4,Parkdale-High Park,2520 BLOOR ST W,4,22,2021-04-29,63,Evaluation needs to be conducted in 1 year,16,2.0,3.0,4.0,3.0,2.0,3.0,,3.0,,,3.0,3.0,5.0,3.0,3.0,3.0,3.0,3.0,4.0,,S0430,43.6480530938,-79.4893694695,305641.932,4834011.683
131239,4152998,2017.0,2021,1992.0,TCHC,4,Parkdale-High Park,1447 KING ST W,6,59,2021-04-29,78,Evaluation needs to be conducted in 2 years,19,4.0,4.0,5.0,3.0,4.0,4.0,4.0,4.0,4.0,3.0,4.0,5.0,5.0,4.0,3.0,4.0,3.0,3.0,4.0,,S0437,43.6366736608,-79.4376587469,309814.512,4832749.203
131240,4154639,2017.0,2021,1969.0,PRIVATE,6,York Centre,601 FINCH AVE W,14,170,2021-04-28,64,Evaluation needs to be conducted in 1 year,19,3.0,4.0,3.0,3.0,2.0,3.0,2.0,3.0,4.0,3.0,3.0,3.0,5.0,3.0,3.0,3.0,4.0,4.0,3.0,,N0624,43.770708386,-79.45171713,308671.446,4847640.0139999995
131241,4255529,2017.0,2021,1910.0,PRIVATE,9,Davenport,97 NORTHCLIFFE BLVD,3,10,2021-04-28,66,Evaluation needs to be conducted in 2 years,13,3.0,4.0,5.0,3.0,,3.0,,3.0,,,3.0,3.0,3.0,3.0,3.0,4.0,,3.0,,,S0928,43.6782401171,-79.4406119217,309572.876,4837366.827
131242,4888759,,2021,,PRIVATE,19,Beaches-East York,990 O'CONNOR DR,3,18,2021-04-28,57,Evaluation needs to be conducted in 1 year,14,2.0,3.0,4.0,2.0,,3.0,,3.0,,,2.0,3.0,4.0,3.0,3.0,2.0,,3.0,3.0,,S1921,43.7089282139,-79.3107669279,320034.661,4840791.817
131243,4153710,2017.0,2021,1910.0,PRIVATE,19,Beaches-East York,2 MAIN ST,3,11,2021-04-28,20,Building Audit,20,1.0,1.0,1.0,1.0,1.0,1.0,1.0,1.0,1.0,1.0,1.0,1.0,1.0,1.0,1.0,1.0,1.0,1.0,1.0,1.0,S1935,43.679046918699996,-79.2983798459,321040.936,4837474.429
131244,4332678,,2021,1920.0,PRIVATE,13,Toronto Centre,36 MAITLAND ST,4,27,2021-04-28,76,Evaluation needs to be conducted in 2 years,16,4.0,4.0,3.0,4.0,3.0,4.0,,4.0,,4.0,4.0,3.0,5.0,4.0,4.0,4.0,,4.0,3.0,,S1326,43.664549218699996,-79.3823243085,314274.864,4835850.85
131245,4153384,,2021,1997.0,SOCIAL HOUSING,10,Spadina-Fort York,2 MARKET ST,10,141,2021-04-28,81,Evaluation needs to be conducted in 3 years,19,4.0,4.0,5.0,3.0,5.0,4.0,3.0,5.0,3.0,,4.0,4.0,5.0,4.0,4.0,4.0,4.0,4.0,3.0,5.0,S1038,43.6472235438,-79.3715162499,315149.49100000004,4833927.328
131246,4250261,2017.0,2021,1987.0,SOCIAL HOUSING,4,Parkdale-High Park,1245 KING ST W,3,39,2021-04-28,66,Evaluation needs to be conducted in 2 years,17,3.0,3.0,4.0,3.0,4.0,3.0,,3.0,,4.0,3.0,3.0,5.0,3.0,3.0,3.0,3.0,3.0,3.0,,S0437,43.638488442299995,-79.4287782888,310530.87,4832951.348
131247,4288126,2017.0,2021,1920.0,SOCIAL HOUSING,4,Parkdale-High Park,1339 KING ST W,3,10,2021-04-28,84,Evaluation needs to be conducted in 3 years,14,4.0,4.0,5.0,4.0,,4.0,,4.0,,,5.0,4.0,5.0,4.0,4.0,4.0,,4.0,4.0,,S0437,43.6377164768,-79.43262819649999,310220.312,4832865.346
131248,4153396,2017.0,2021,1990.0,TCHC,13,Toronto Centre,60 RICHMOND ST E,8,50,2021-04-28,83,Evaluation needs to be conducted in 3 years,18,4.0,4.0,5.0,4.0,4.0,3.0,4.0,3.0,5.0,,4.0,4.0,5.0,5.0,5.0,4.0,4.0,4.0,,4.0,S1334,43.6525396289,-79.3761942758,314771.228,4834517.345
131249,4153601,2017.0,2021,1969.0,PRIVATE,13,Toronto Centre,650 PARLIAMENT ST,22,568,2021-04-28,61,Evaluation needs to be conducted in 1 year,18,4.0,4.0,3.0,2.0,4.0,3.0,3.0,4.0,3.0,,3.0,3.0,3.0,3.0,2.0,3.0,3.0,3.0,2.0,,S1323,43.6696118145,-79.3706631071,315214.451,4836414.664
131250,4153231,2017.0,2021,1972.0,SOCIAL HOUSING,11,University-Rosedale,138 PEARS AVE,7,96,2021-04-28,70,Evaluation needs to be conducted in 2 years,14,3.0,3.0,3.0,3.0,3.0,3.0,,4.0,,,3.0,3.0,5.0,4.0,4.0,4.0,,4.0,,,S1127,43.6755554537,-79.3981323279,313033.034,4837080.904
131251,4153395,2017.0,2021,1900.0,SOCIAL HOUSING,13,Toronto Centre,147 QUEEN ST E,7,76,2021-04-28,76,Evaluation needs to be conducted in 2 years,18,4.0,4.0,5.0,3.0,4.0,3.0,,4.0,3.0,,3.0,3.0,5.0,4.0,3.0,4.0,4.0,4.0,4.0,4.0,S1334,43.6535746622,-79.3726782657,315054.67,4834632.752
131252,4888762,,2021,1965.0,PRIVATE,19,Beaches-East York,994 O'CONNOR DR,3,18,2021-04-28,59,Evaluation needs to be conducted in 1 year,14,2.0,3.0,4.0,3.0,,3.0,,2.0,,,2.0,4.0,4.0,3.0,3.0,2.0,,3.0,3.0,,S1921,43.709051350799996,-79.3106659007,320042.771,4840805.515
131253,4888795,2021.0,2021,1951.0,PRIVATE,19,Beaches-East York,1000 O'CONNOR DR,3,12,2021-04-28,64,Evaluation needs to be conducted in 1 year,14,3.0,4.0,4.0,3.0,,4.0,,2.0,,,3.0,4.0,4.0,3.0,3.0,3.0,,3.0,2.0,,S1921,43.7092735859,-79.3104170385,320062.769,4840830.249
131254,4156601,2017.0,2021,2010.0,TCHC,13,Toronto Centre,1 OAK ST,10,84,2021-04-28,71,Evaluation needs to be conducted in 2 years,17,4.0,4.0,4.0,3.0,3.0,3.0,3.0,3.0,3.0,,3.0,4.0,4.0,4.0,4.0,4.0,,4.0,3.0,,S1330,43.660640531000006,-79.366069469,315613.334,4835427.868
131255,4153571,2018.0,2021,1969.0,PRIVATE,13,Toronto Centre,210 OAK ST,17,260,2021-04-28,57,Evaluation needs to be conducted in 1 year,18,3.0,3.0,4.0,3.0,3.0,4.0,2.0,3.0,2.0,,2.0,2.0,4.0,2.0,3.0,3.0,2.0,3.0,3.0,,S1330,43.663368073,-79.358462264,316209.596,4835679.79
131256,4153419,2017.0,2021,1979.0,TCHC,11,University-Rosedale,34 OXFORD ST,5,189,2021-04-28,70,Evaluation needs to be conducted in 2 years,18,3.0,3.0,3.0,4.0,3.0,4.0,3.0,4.0,4.0,,3.0,4.0,4.0,3.0,4.0,4.0,3.0,3.0,4.0,,S1143,43.656896921000005,-79.40179055,312705.645,4834999.574
131257,4153414,2018.0,2021,1961.0,TCHC,11,University-Rosedale,2 MURRAY ST,6,86,2021-04-28,74,Evaluation needs to be conducted in 2 years,16,3.0,3.0,5.0,3.0,4.0,3.0,,4.0,4.0,,3.0,4.0,5.0,3.0,4.0,4.0,,3.0,4.0,,S1144,43.6562993679,-79.3909386716,313581.33,4834933.3780000005
131258,4156547,2017.0,2021,2010.0,TCHC,13,Toronto Centre,92 CARLTON ST,12,110,2021-04-28,67,Evaluation needs to be conducted in 2 years,18,4.0,4.0,3.0,3.0,3.0,3.0,3.0,3.0,4.0,4.0,3.0,3.0,3.0,3.0,4.0,4.0,,3.0,3.0,,S1326,43.662294376400006,-79.3782139337,314606.727,4835600.825
131259,4152719,2017.0,2021,1960.0,PRIVATE,21,Scarborough Centre,1477 BIRCHMOUNT RD,3,21,2021-04-28,79,Evaluation needs to be conducted in 2 years,15,4.0,4.0,4.0,4.0,,4.0,,3.0,,,5.0,5.0,4.0,3.0,4.0,4.0,5.0,4.0,2.0,,E2128,43.7569401059,-79.2882167684,321838.336,4846130.018999999
131260,4153178,2017.0,2021,1919.0,PRIVATE,11,University-Rosedale,334 BLOOR ST W,3,24,2021-04-28,71,Evaluation needs to be conducted in 2 years,14,3.0,3.0,5.0,3.0,3.0,3.0,,4.0,,,3.0,4.0,5.0,3.0,4.0,4.0,,3.0,,,S1126,43.666839079700004,-79.404253282,312505.959,4836102.924
131261,4153613,2017.0,2021,1950.0,PRIVATE,14,Toronto-Danforth,812 BROADVIEW AVE,3,24,2021-04-28,60,Evaluation needs to be conducted in 1 year,15,3.0,3.0,1.0,3.0,3.0,3.0,,3.0,,,3.0,3.0,4.0,3.0,3.0,3.0,,4.0,,3.0,S1424,43.677863449499995,-79.3588173792,316168.205,4837332.933999999
131262,4153417,2017.0,2021,1885.0,SOCIAL HOUSING,11,University-Rosedale,87 BELLEVUE AVE,3,28,2021-04-28,71,Evaluation needs to be conducted in 2 years,14,3.0,3.0,5.0,3.0,3.0,3.0,,3.0,,,3.0,4.0,5.0,4.0,4.0,3.0,,4.0,,,S1143,43.6561878565,-79.4036045605,312559.687,4834919.685
131263,4153418,2018.0,2021,1988.0,PRIVATE,11,University-Rosedale,99 BELLEVUE AVE,4,16,2021-04-28,68,Evaluation needs to be conducted in 2 years,16,3.0,3.0,4.0,3.0,,3.0,3.0,3.0,,,3.0,4.0,3.0,4.0,4.0,4.0,3.0,4.0,3.0,,S1143,43.6567018955,-79.4039081051,312535.13399999996,4834976.766
131264,4333863,2018.0,2021,1976.0,SOCIAL HOUSING,24,Scarborough-Guildwood,2877 A ELLESMERE RD,12,126,2021-04-28,87,Evaluation needs to be conducted in 3 years,18,5.0,5.0,5.0,5.0,5.0,5.0,4.0,4.0,,4.0,3.0,5.0,5.0,4.0,3.0,4.0,,4.0,3.0,5.0,E2428,43.780692143,-79.203193428,328559.122,4848999.52
131265,4153624,2019.0,2021,1995.0,SOCIAL HOUSING,14,Toronto-Danforth,802 EASTERN AVE,3,16,2021-04-28,59,Evaluation needs to be conducted in 1 year,16,2.0,3.0,4.0,2.0,,3.0,,3.0,3.0,,2.0,2.0,4.0,3.0,3.0,3.0,3.0,4.0,3.0,,S1441,43.661637945900004,-79.3298622257,318506.50800000003,4835534.706
131266,4153661,2017.0,2021,1985.0,SOCIAL HOUSING,14,Toronto-Danforth,51 DONLANDS AVE,5,53,2021-04-28,71,Evaluation needs to be conducted in 2 years,18,4.0,4.0,5.0,3.0,3.0,4.0,3.0,4.0,4.0,,3.0,4.0,3.0,3.0,3.0,4.0,3.0,3.0,4.0,,S1427,43.6811775403,-79.3372646974,317905.252,4837704.244
131267,4154656,2017.0,2021,1951.0,PRIVATE,8,Eglinton-Lawrence,312 DOUGLAS AVE,3,11,2021-04-28,64,Evaluation needs to be conducted in 1 year,15,2.0,4.0,3.0,3.0,3.0,3.0,,3.0,,,2.0,4.0,5.0,3.0,3.0,4.0,,3.0,3.0,,N0824,43.7238625563,-79.4167257384,311493.898,4842436.978
131268,4152995,2017.0,2021,1989.0,TCHC,4,Parkdale-High Park,75 DOWLING AVE,7,138,2021-04-28,68,Evaluation needs to be conducted in 2 years,18,4.0,4.0,5.0,3.0,4.0,3.0,,3.0,3.0,3.0,4.0,4.0,3.0,3.0,3.0,3.0,3.0,3.0,3.0,,S0437,43.635062111,-79.437601411,309819.00800000003,4832571.13
131269,4152997,2018.0,2021,1965.0,PRIVATE,4,Parkdale-High Park,115 DOWLING AVE,9,70,2021-04-28,82,Evaluation needs to be conducted in 3 years,17,4.0,4.0,5.0,4.0,4.0,4.0,,4.0,4.0,,4.0,4.0,5.0,4.0,4.0,4.0,4.0,4.0,4.0,,S0437,43.636352645100004,-79.4380647269,309781.782,4832713.518
131270,4221299,2017.0,2021,1950.0,PRIVATE,9,Davenport,1094 COLLEGE ST,3,19,2021-04-28,81,Evaluation needs to be conducted in 3 years,15,4.0,5.0,5.0,4.0,4.0,4.0,,3.0,,,4.0,4.0,5.0,4.0,3.0,4.0,,4.0,4.0,,S0934,43.6528825044,-79.4321278569,310259.331,4834550.221
131271,4154290,2017.0,2021,1992.0,SOCIAL HOUSING,5,York South-Weston,2214 KEELE ST,7,89,2021-04-28,77,Evaluation needs to be conducted in 2 years,20,3.0,4.0,5.0,3.0,3.0,4.0,3.0,3.0,4.0,3.0,4.0,4.0,5.0,4.0,4.0,4.0,5.0,4.0,4.0,4.0,W0529,43.7009209193,-79.476922025,306644.572,4839885.152
131272,4154311,2017.0,2021,1958.0,PRIVATE,5,York South-Weston,2595 KEELE ST,3,23,2021-04-28,75,Evaluation needs to be conducted in 2 years,16,4.0,3.0,5.0,4.0,3.0,4.0,,3.0,,,4.0,3.0,5.0,4.0,4.0,4.0,3.0,4.0,3.0,,W0523,43.71842644229999,-79.4794939296,306436.812,4841829.8780000005
131273,4154611,2017.0,2021,1989.0,TCHC,6,York Centre,2 FAYWOOD BLVD,3,40,2021-04-28,66,Evaluation needs to be conducted in 2 years,18,3.0,4.0,3.0,3.0,3.0,3.0,3.0,3.0,4.0,,3.0,4.0,5.0,3.0,3.0,3.0,3.0,3.0,3.0,,N0629,43.735314433,-79.446969691,309056.09,4843708.153
131274,4915493,2021.0,2021,2020.0,PRIVATE,15,Don Valley West,18 ERSKINE AVE,35,315,2021-04-28,100,Evaluation needs to be conducted in 3 years,18,5.0,5.0,5.0,5.0,,5.0,5.0,5.0,5.0,,5.0,5.0,5.0,5.0,5.0,5.0,5.0,5.0,5.0,5.0,N1526,,,312961.435,4841057.89
131275,4154142,2017.0,2021,1945.0,PRIVATE,14,Toronto-Danforth,9 ELMSDALE RD,4,38,2021-04-28,78,Evaluation needs to be conducted in 2 years,16,4.0,4.0,4.0,4.0,4.0,4.0,,4.0,,4.0,3.0,4.0,5.0,3.0,4.0,4.0,,3.0,4.0,,S1422,43.6947032989,-79.3438349968,317372.708,4839205.914
131276,4155268,2017.0,2021,1957.0,PRIVATE,3,Etobicoke-Lakeshore,8 HILL HEIGHTS RD,4,27,2021-04-28,78,Evaluation needs to be conducted in 2 years,16,4.0,4.0,4.0,4.0,4.0,4.0,,4.0,,,3.0,4.0,5.0,4.0,4.0,4.0,3.0,3.0,4.0,,W0327,43.6391002088,-79.4927582679,305368.622,4833017.033
131277,4153381,2017.0,2021,1983.0,TCHC,10,Spadina-Fort York,55 THE ESPLANADE,12,166,2021-04-28,78,Evaluation needs to be conducted in 2 years,18,4.0,4.0,5.0,3.0,4.0,4.0,4.0,4.0,4.0,,4.0,3.0,5.0,4.0,4.0,4.0,3.0,3.0,4.0,,S1038,43.6462124055,-79.37472760840001,314890.596,4833814.598
131278,4155640,2017.0,2021,1957.0,TCHC,8,Eglinton-Lawrence,20 VARNA DR,3,31,2021-04-28,67,Evaluation needs to be conducted in 2 years,15,3.0,3.0,5.0,2.0,3.0,3.0,,4.0,,,2.0,3.0,5.0,3.0,3.0,3.0,,4.0,4.0,,N0823,43.7194419613,-79.4399793206,309620.709,4841944.21
131279,4152826,2017.0,2021,1970.0,PRIVATE,24,Scarborough-Guildwood,20 TUXEDO CRT,15,210,2021-04-28,77,Evaluation needs to be conducted in 2 years,18,3.0,4.0,4.0,3.0,4.0,4.0,3.0,5.0,4.0,,3.0,5.0,5.0,3.0,4.0,4.0,3.0,4.0,4.0,,E2422,43.7801851032,-79.2301866878,326502.803,4848725.927
131280,4154408,2017.0,2021,1996.0,SOCIAL HOUSING,6,York Centre,1206 WILSON AVE,5,68,2021-04-28,71,Evaluation needs to be conducted in 2 years,18,4.0,4.0,4.0,3.0,3.0,3.0,4.0,4.0,3.0,,3.0,4.0,5.0,3.0,3.0,4.0,,4.0,3.0,3.0,N0627,43.725308739,-79.48942495600001,305636.238,4842595.268
131281,4155823,2017.0,2021,2009.0,TCHC,13,Toronto Centre,246 SACKVILLE ST,8,61,2021-04-28,76,Evaluation needs to be conducted in 2 years,18,4.0,4.0,4.0,3.0,3.0,3.0,4.0,4.0,4.0,,3.0,4.0,4.0,4.0,4.0,4.0,,4.0,4.0,4.0,S1330,43.660308626,-79.36336913699999,315800.712,4835394.596
131282,4153192,2018.0,2021,1963.0,PRIVATE,11,University-Rosedale,68-72 SPADINA RD,11,157,2021-04-28,76,Evaluation needs to be conducted in 2 years,17,4.0,4.0,5.0,2.0,3.0,3.0,,4.0,4.0,3.0,4.0,5.0,5.0,4.0,3.0,3.0,5.0,4.0,,,S1126,43.670432258000005,-79.4055781,312395.55199999997,4836492.651000001
131283,4155601,2017.0,2021,1964.0,TCHC,13,Toronto Centre,275 SHUTER ST,16,299,2021-04-28,61,Evaluation needs to be conducted in 1 year,18,3.0,3.0,4.0,3.0,3.0,3.0,2.0,3.0,3.0,,3.0,4.0,3.0,3.0,3.0,3.0,3.0,3.0,,3.0,S1329,43.6557407864,-79.36788598529999,315440.851,4834874.0030000005
131284,4153559,2017.0,2021,1982.0,TCHC,10,Spadina-Fort York,15 SCADDING AVE,9,251,2021-04-28,83,Evaluation needs to be conducted in 3 years,18,4.0,4.0,5.0,4.0,5.0,3.0,4.0,5.0,5.0,,4.0,4.0,5.0,4.0,4.0,4.0,4.0,4.0,3.0,,S1039,43.648589687,-79.366782746,315530.851,4834080.659
131285,4153226,2017.0,2021,1967.0,PRIVATE,11,University-Rosedale,191 ST GEORGE ST,10,105,2021-04-28,77,Evaluation needs to be conducted in 2 years,18,4.0,4.0,5.0,5.0,4.0,5.0,4.0,4.0,3.0,,3.0,3.0,5.0,3.0,4.0,4.0,3.0,3.0,3.0,,S1127,43.6715668112,-79.4011026484,312759.44399999996,4836628.436000001
131286,4154436,2017.0,2021,1970.0,PRIVATE,6,York Centre,2425 JANE ST,20,154,2021-04-28,67,Evaluation needs to be conducted in 2 years,19,4.0,4.0,4.0,3.0,3.0,3.0,3.0,3.0,4.0,3.0,3.0,4.0,5.0,3.0,3.0,3.0,3.0,3.0,3.0,,N0627,43.7313917066,-79.5103100485,303954.001,4843270.091
131287,4155800,2017.0,2021,1993.0,TCHC,13,Toronto Centre,140 THE ESPLANADE,7,102,2021-04-28,66,Evaluation needs to be conducted in 2 years,17,3.0,3.0,3.0,3.0,3.0,3.0,3.0,3.0,3.0,,3.0,4.0,4.0,4.0,4.0,4.0,,3.0,3.0,,S1339,43.648548433,-79.37025343100001,315250.877,4834075.626
131288,4902355,,2021,,PRIVATE,19,Beaches-East York,2902 ST CLAIR AVE E,3,12,2021-04-28,74,Evaluation needs to be conducted in 2 years,14,3.0,4.0,4.0,3.0,,3.0,,4.0,,,3.0,3.0,5.0,5.0,4.0,3.0,,4.0,4.0,,S1924,43.708134486599995,-79.3018433113,320754.01399999997,4840705.283
131289,4154175,2017.0,2021,1988.0,TCHC,15,Don Valley West,12 THORNCLIFFE PARK DR,11,219,2021-04-27,68,Evaluation needs to be conducted in 2 years,18,3.0,4.0,5.0,3.0,3.0,4.0,3.0,3.0,2.0,,3.0,3.0,5.0,3.0,3.0,3.0,3.0,4.0,4.0,,N1533,43.704529308999994,-79.348260442,317013.706,4840297.828
131290,4155588,2017.0,2021,1974.0,TCHC,4,Parkdale-High Park,85 SPENCER AVE,7,57,2021-04-27,81,Evaluation needs to be conducted in 3 years,18,4.0,4.0,5.0,3.0,4.0,3.0,,4.0,5.0,4.0,3.0,4.0,5.0,4.0,4.0,4.0,4.0,5.0,4.0,,S0437,43.637330091,-79.430147711,310420.221,4832823.529
131291,4575691,2019.0,2021,2018.0,PRIVATE,13,Toronto Centre,25 SELBY ST,51,503,2021-04-27,99,Evaluation needs to be conducted in 3 years,18,5.0,5.0,5.0,5.0,,5.0,5.0,5.0,5.0,5.0,5.0,5.0,5.0,5.0,5.0,4.0,,5.0,5.0,5.0,S1322,,,314705.756,4836585.294
131292,4155858,2017.0,2021,1905.0,PRIVATE,11,University-Rosedale,41 SPADINA RD,4,24,2021-04-27,66,Evaluation needs to be conducted in 2 years,17,4.0,4.0,5.0,3.0,3.0,3.0,,3.0,3.0,3.0,3.0,3.0,5.0,3.0,3.0,3.0,2.0,3.0,,,S1127,43.6688434904,-79.4042769908,312503.8,4836325.6
131293,4155652,2017.0,2021,1974.0,TCHC,8,Eglinton-Lawrence,855 ROSELAWN AVE,17,253,2021-04-27,64,Evaluation needs to be conducted in 1 year,18,3.0,3.0,5.0,2.0,3.0,3.0,3.0,4.0,3.0,,3.0,3.0,5.0,3.0,2.0,3.0,4.0,3.0,3.0,,N0831,43.701879441,-79.44147707399999,309501.122,4839993.968
131294,4153867,2017.0,2021,1990.0,TCHC,15,Don Valley West,3179 YONGE ST,5,110,2021-04-27,90,Evaluation needs to be conducted in 3 years,18,4.0,4.0,5.0,4.0,4.0,5.0,4.0,4.0,5.0,,3.0,4.0,5.0,5.0,5.0,5.0,5.0,5.0,5.0,,N1525,43.727336774099996,-79.40205766359999,312675.228,4842824.244
131295,4154612,2017.0,2021,1965.0,PRIVATE,6,York Centre,20 WILMINGTON AVE,4,13,2021-04-27,65,Evaluation needs to be conducted in 1 year,17,4.0,4.0,3.0,4.0,3.0,3.0,,3.0,,3.0,4.0,2.0,5.0,3.0,3.0,3.0,3.0,3.0,2.0,,N0624,43.75349017520001,-79.4533072194,308544.767,4845726.114
131296,4250622,2017.0,2021,1913.0,PRIVATE,11,University-Rosedale,1 A VERMONT AVE,3,22,2021-04-27,70,Evaluation needs to be conducted in 2 years,16,4.0,4.0,5.0,3.0,4.0,3.0,,4.0,,3.0,4.0,2.0,4.0,3.0,3.0,3.0,4.0,3.0,,,S1125,43.671904761099995,-79.414243936,311699.702,4836664.8319999995
131297,4221313,2017.0,2021,1920.0,PRIVATE,11,University-Rosedale,110 WALMER RD,4,10,2021-04-27,70,Evaluation needs to be conducted in 2 years,16,4.0,4.0,3.0,3.0,3.0,3.0,,5.0,,,3.0,3.0,5.0,4.0,3.0,3.0,3.0,3.0,4.0,,S1126,43.6714919471,-79.4073443984,312256.124,4836619.554
131298,4155269,2017.0,2021,1964.0,PRIVATE,3,Etobicoke-Lakeshore,6 HILL HEIGHTS RD,4,30,2021-04-27,79,Evaluation needs to be conducted in 2 years,17,4.0,4.0,4.0,4.0,3.0,4.0,,4.0,,3.0,4.0,4.0,5.0,4.0,4.0,4.0,4.0,4.0,4.0,,W0327,43.6390231144,-79.4931494721,305337.05600000004,4833008.466
131299,4154427,2018.0,2021,1968.0,PRIVATE,6,York Centre,2900 KEELE ST,3,12,2021-04-27,55,Evaluation needs to be conducted in 1 year,16,3.0,3.0,3.0,3.0,2.0,3.0,,2.0,,,3.0,2.0,5.0,2.0,2.0,3.0,2.0,3.0,3.0,,N0627,43.7339448513,-79.4841475929,306061.54,4843553.804
131300,4888798,2021.0,2021,1958.0,PRIVATE,19,Beaches-East York,1004 O'CONNOR DR,3,12,2021-04-27,54,Evaluation needs to be conducted in 1 year,14,3.0,4.0,2.0,2.0,,3.0,,2.0,,,3.0,2.0,3.0,3.0,3.0,3.0,,3.0,2.0,,S1921,43.709391545500004,-79.31032697229999,320069.997,4840843.37
131301,4888799,,2021,,PRIVATE,19,Beaches-East York,1008 O'CONNOR DR,3,12,2021-04-27,56,Evaluation needs to be conducted in 1 year,14,2.0,3.0,3.0,2.0,,3.0,,3.0,,,2.0,3.0,4.0,3.0,2.0,2.0,,4.0,3.0,,S1921,43.7095271974,-79.3102178135,320078.75899999996,4840858.46
131302,4888801,2021.0,2021,1954.0,PRIVATE,19,Beaches-East York,1012 O'CONNOR DR,3,12,2021-04-27,51,Evaluation needs to be conducted in 1 year,14,2.0,4.0,3.0,2.0,,3.0,,2.0,,,2.0,3.0,3.0,3.0,2.0,2.0,,3.0,2.0,,S1921,43.709651808400004,-79.3101171407,320086.84,4840872.322
131303,4888802,,2021,,PRIVATE,19,Beaches-East York,1016 O'CONNOR DR,3,12,2021-04-27,65,Evaluation needs to be conducted in 1 year,15,3.0,4.0,3.0,3.0,4.0,3.0,,4.0,,,4.0,3.0,4.0,3.0,3.0,3.0,,3.0,2.0,,S1921,43.7097824646,-79.3100193403,320094.688,4840886.855
131304,4888803,,2021,,PRIVATE,19,Beaches-East York,1020 O'CONNOR DR,3,12,2021-04-27,71,Evaluation needs to be conducted in 2 years,14,4.0,4.0,4.0,4.0,,4.0,,3.0,,,4.0,4.0,5.0,3.0,3.0,3.0,,3.0,2.0,,S1921,43.709917114700005,-79.309915823,320102.99600000004,4840901.833000001
131305,4888804,,2021,,PRIVATE,19,Beaches-East York,1024 O'CONNOR DR,3,12,2021-04-27,70,Evaluation needs to be conducted in 2 years,14,4.0,4.0,3.0,4.0,,3.0,,2.0,,,4.0,4.0,5.0,3.0,4.0,3.0,,4.0,2.0,,S1921,43.710018819,-79.3098385055,320109.201,4840913.146000001
131306,4153628,2017.0,2021,1988.0,SOCIAL HOUSING,14,Toronto-Danforth,15 PAPE AVE,5,77,2021-04-27,78,Evaluation needs to be conducted in 2 years,17,4.0,4.0,5.0,3.0,3.0,3.0,4.0,4.0,3.0,,3.0,4.0,5.0,4.0,4.0,4.0,,4.0,5.0,,S1441,43.6594297929,-79.3361462421,318000.182,4835288.371
131307,4156586,2017.0,2021,1960.0,PRIVATE,15,Don Valley West,855 MILLWOOD RD,3,22,2021-04-27,60,Evaluation needs to be conducted in 1 year,15,2.0,3.0,4.0,3.0,,3.0,,3.0,,3.0,2.0,2.0,5.0,3.0,3.0,3.0,2.0,4.0,,,N1535,43.7041508326,-79.36627859020001,315561.894,4840252.385
131308,4152835,2017.0,2021,1976.0,PRIVATE,24,Scarborough-Guildwood,70 MORNELLE CRT,16,264,2021-04-27,78,Evaluation needs to be conducted in 2 years,18,4.0,4.0,5.0,4.0,3.0,4.0,3.0,4.0,4.0,,3.0,3.0,5.0,4.0,4.0,4.0,4.0,4.0,4.0,,E2423,43.786853838999996,-79.197805135,329106.341,4849476.751
131309,4154723,2017.0,2021,1972.0,TCHC,6,York Centre,6250 BATHURST ST,14,389,2021-04-27,64,Evaluation needs to be conducted in 1 year,19,4.0,3.0,3.0,3.0,3.0,3.0,3.0,3.0,3.0,3.0,3.0,4.0,5.0,3.0,3.0,3.0,3.0,3.0,3.0,,N0622,43.79163957,-79.446195585,309114.424,4849965.666
131310,4227299,2017.0,2021,1962.0,PRIVATE,6,York Centre,4100 BATHURST ST,5,37,2021-04-27,71,Evaluation needs to be conducted in 2 years,18,4.0,4.0,4.0,4.0,3.0,4.0,,3.0,3.0,3.0,3.0,4.0,5.0,4.0,3.0,4.0,3.0,3.0,3.0,,N0629,43.7454927714,-79.4364245515,309904.96,4844838.53
131311,4154603,2017.0,2021,1964.0,PRIVATE,6,York Centre,4160 BATHURST ST,7,67,2021-04-27,66,Evaluation needs to be conducted in 2 years,19,4.0,3.0,3.0,4.0,3.0,4.0,4.0,3.0,3.0,2.0,3.0,4.0,5.0,3.0,3.0,3.0,3.0,3.0,3.0,,N0629,43.7478559496,-79.4370573738,309853.799,4845101.032
131312,4154700,2017.0,2021,1980.0,TCHC,6,York Centre,4455 BATHURST ST,14,301,2021-04-27,74,Evaluation needs to be conducted in 2 years,19,4.0,4.0,3.0,4.0,4.0,4.0,3.0,3.0,4.0,,4.0,4.0,5.0,3.0,4.0,4.0,3.0,3.0,3.0,4.0,N0624,43.758347457700005,-79.4386412229,309743.646,4846266.068
131313,4155114,2017.0,2021,1950.0,PRIVATE,5,York South-Weston,79 CLEARVIEW HTS,4,54,2021-04-27,69,Evaluation needs to be conducted in 2 years,16,3.0,4.0,5.0,3.0,3.0,4.0,,3.0,,3.0,3.0,3.0,4.0,3.0,3.0,4.0,,4.0,3.0,,W0532,43.692294791,-79.482440365,306199.702,4838927.692
131314,4155113,2017.0,2021,1950.0,PRIVATE,5,York South-Weston,81 CLEARVIEW HTS,3,40,2021-04-27,74,Evaluation needs to be conducted in 2 years,16,4.0,4.0,5.0,4.0,3.0,4.0,,4.0,,3.0,4.0,3.0,4.0,3.0,3.0,4.0,,4.0,3.0,,W0532,43.692447216000005,-79.48271117899999,306177.868,4838944.6219999995
131315,4155728,2018.0,2021,1970.0,PRIVATE,11,University-Rosedale,318 CLINTON ST,3,12,2021-04-27,69,Evaluation needs to be conducted in 2 years,16,3.0,3.0,5.0,3.0,3.0,3.0,,3.0,,,3.0,4.0,5.0,4.0,3.0,4.0,3.0,3.0,3.0,,S1133,43.6625198121,-79.4170060031,311478.057,4835622.035
131316,4156401,2017.0,2021,1953.0,PRIVATE,3,Etobicoke-Lakeshore,10 CROWN HILL PL,5,26,2021-04-27,75,Evaluation needs to be conducted in 2 years,17,4.0,4.0,4.0,4.0,4.0,4.0,,4.0,,4.0,3.0,3.0,4.0,4.0,4.0,3.0,4.0,3.0,4.0,,W0327,43.639476269,-79.491647816,305457.959,4833059.771000001
131317,4156115,2017.0,2021,1953.0,PRIVATE,3,Etobicoke-Lakeshore,11 CROWN HILL PL,5,26,2021-04-27,75,Evaluation needs to be conducted in 2 years,17,4.0,4.0,4.0,4.0,4.0,4.0,,4.0,,4.0,3.0,3.0,4.0,4.0,4.0,3.0,4.0,3.0,4.0,,W0327,43.639636427,-79.491738294,305450.658,4833077.563
131318,4250554,2018.0,2021,1898.0,PRIVATE,11,University-Rosedale,409 HURON ST,4,42,2021-04-27,65,Evaluation needs to be conducted in 1 year,16,3.0,4.0,4.0,3.0,3.0,3.0,,2.0,,4.0,3.0,4.0,4.0,3.0,3.0,3.0,,3.0,3.0,,S1135,43.666610495,-79.400824313,312782.257,4836078.804
131319,4152695,2017.0,2021,1971.0,PRIVATE,21,Scarborough Centre,10 IONVIEW RD,6,62,2021-04-27,83,Evaluation needs to be conducted in 3 years,18,5.0,5.0,4.0,5.0,4.0,5.0,5.0,5.0,5.0,,3.0,4.0,5.0,3.0,4.0,3.0,5.0,3.0,2.0,,E2133,43.7320328108,-79.27180036840001,323167.844,4843366.427
131320,4152993,2017.0,2021,1977.0,PRIVATE,4,Parkdale-High Park,96 JAMESON AVE,6,72,2021-04-27,68,Evaluation needs to be conducted in 2 years,18,3.0,4.0,5.0,3.0,3.0,3.0,3.0,4.0,3.0,,4.0,4.0,4.0,3.0,3.0,3.0,3.0,3.0,3.0,,S0437,43.63476362390001,-79.4354387074,309993.79600000003,4832537.146000001
131321,4152992,2018.0,2021,1960.0,PRIVATE,4,Parkdale-High Park,100 JAMESON AVE,10,80,2021-04-27,60,Evaluation needs to be conducted in 1 year,17,3.0,3.0,4.0,3.0,3.0,3.0,,2.0,2.0,,3.0,3.0,5.0,3.0,3.0,3.0,3.0,3.0,2.0,,S0437,43.635119188900006,-79.43565646479999,309976.196,4832576.633
131322,4152983,2017.0,2021,1968.0,PRIVATE,4,Parkdale-High Park,109 JAMESON AVE,7,118,2021-04-27,62,Evaluation needs to be conducted in 1 year,17,3.0,4.0,5.0,2.0,3.0,3.0,,3.0,3.0,,2.0,3.0,5.0,3.0,3.0,3.0,3.0,3.0,2.0,,S0437,43.635775261400006,-79.4351441471,310017.478,4832649.546
131323,4152760,2017.0,2021,1950.0,PRIVATE,21,Scarborough Centre,1385 MIDLAND AVE,13,144,2021-04-26,79,Evaluation needs to be conducted in 2 years,18,5.0,3.0,5.0,3.0,4.0,5.0,4.0,5.0,4.0,,3.0,4.0,5.0,3.0,4.0,4.0,4.0,3.0,3.0,,E2134,43.750636326000006,-79.2638428764,323803.012,4845434.954
131324,4288472,2018.0,2021,2016.0,SOCIAL HOUSING,13,Toronto Centre,75 COOPERAGE ST,12,145,2021-04-26,94,Evaluation needs to be conducted in 3 years,18,5.0,4.0,5.0,5.0,5.0,5.0,4.0,4.0,5.0,,4.0,5.0,5.0,5.0,4.0,5.0,,5.0,5.0,5.0,S1336,,,316341.205,4834605.327
131325,4152750,2017.0,2021,1954.0,PRIVATE,21,Scarborough Centre,30 GILDER DR,14,192,2021-04-26,86,Evaluation needs to be conducted in 3 years,19,5.0,3.0,5.0,5.0,4.0,5.0,5.0,5.0,5.0,5.0,4.0,3.0,5.0,3.0,5.0,4.0,3.0,4.0,4.0,,E2134,43.7371458262,-79.25653121010001,324396.207,4843937.937
131326,4154887,2017.0,2021,1960.0,PRIVATE,16,Don Valley East,48 ECCLESTON DR,4,69,2021-04-25,76,Evaluation needs to be conducted in 2 years,18,4.0,4.0,4.0,4.0,3.0,4.0,,4.0,4.0,4.0,3.0,3.0,4.0,4.0,4.0,3.0,4.0,4.0,4.0,,N1628,43.7279658085,-79.31798872579999,319448.016,4842905.4969999995
131327,4154823,2017.0,2021,1971.0,PRIVATE,17,Don Valley North,2600 DON MILLS RD,19,226,2021-04-25,68,Evaluation needs to be conducted in 2 years,18,4.0,4.0,4.0,3.0,3.0,3.0,2.0,4.0,4.0,,3.0,2.0,5.0,3.0,4.0,3.0,3.0,4.0,3.0,,N1727,43.7762509604,-79.34860618260001,316971.632,4848264.765
131328,4154822,2017.0,2021,1969.0,PRIVATE,17,Don Valley North,25 LEITH HILL RD,15,147,2021-04-25,73,Evaluation needs to be conducted in 2 years,19,4.0,3.0,4.0,2.0,4.0,4.0,3.0,4.0,4.0,4.0,3.0,3.0,5.0,3.0,4.0,4.0,4.0,4.0,3.0,,N1727,43.7763920506,-79.3495861019,316892.719,4848280.297
131329,4154848,2017.0,2021,1980.0,TCHC,17,Don Valley North,4000 DON MILLS RD,6,397,2021-04-24,76,Evaluation needs to be conducted in 2 years,18,3.0,4.0,3.0,4.0,4.0,4.0,4.0,3.0,4.0,,3.0,3.0,5.0,4.0,4.0,4.0,4.0,4.0,4.0,,N1722,43.810377963,-79.36147583,315929.11100000003,4852055.344
131330,4155651,2017.0,2021,1962.0,TCHC,16,Don Valley East,14 RAYOAK DR,8,63,2021-04-24,67,Evaluation needs to be conducted in 2 years,17,4.0,3.0,3.0,2.0,3.0,4.0,3.0,3.0,3.0,,3.0,4.0,4.0,3.0,3.0,4.0,,4.0,4.0,,N1625,43.7598478794,-79.3194127987,319325.589,4846447.109
131331,4156469,2018.0,2021,1992.0,SOCIAL HOUSING,24,Scarborough-Guildwood,3379 LAWRENCE AVE E,6,48,2021-04-23,78,Evaluation needs to be conducted in 2 years,19,4.0,4.0,4.0,3.0,3.0,5.0,4.0,3.0,4.0,,2.0,4.0,5.0,5.0,4.0,3.0,5.0,4.0,4.0,4.0,E2429,43.7578221906,-79.2338165953,326218.534,4846240.572
131332,4153552,2017.0,2021,1988.0,SOCIAL HOUSING,14,Toronto-Danforth,841 QUEEN ST E,3,36,2021-04-23,62,Evaluation needs to be conducted in 1 year,17,3.0,3.0,4.0,3.0,3.0,3.0,3.0,3.0,2.0,,3.0,3.0,4.0,3.0,4.0,3.0,,3.0,,3.0,S1440,43.660037777700005,-79.34386069039999,317377.858,4835354.725
131333,4155069,2017.0,2021,1959.0,PRIVATE,9,Davenport,2204 DUFFERIN ST,4,28,2021-04-23,70,Evaluation needs to be conducted in 2 years,16,3.0,4.0,4.0,3.0,3.0,4.0,,3.0,,,3.0,3.0,5.0,3.0,3.0,4.0,4.0,4.0,3.0,,S0922,43.690442713100005,-79.44838365060001,308945.447,4838722.081
131334,4287030,2018.0,2021,1917.0,PRIVATE,4,Parkdale-High Park,193 DOWLING AVE,5,16,2021-04-23,71,Evaluation needs to be conducted in 2 years,14,4.0,3.0,4.0,4.0,4.0,3.0,,3.0,,,4.0,4.0,5.0,3.0,3.0,3.0,,3.0,,,S0436,43.6398204138,-79.43958903010001,309658.458,4833105.204
131335,4153576,2017.0,2021,1973.0,TCHC,14,Toronto-Danforth,859 DUNDAS ST E,4,29,2021-04-23,69,Evaluation needs to be conducted in 2 years,17,3.0,4.0,4.0,3.0,3.0,3.0,3.0,4.0,3.0,,3.0,3.0,4.0,4.0,4.0,4.0,,4.0,,3.0,S1434,43.6621159617,-79.35167947,316746.84,4835584.466
131336,4167459,2017.0,2021,2006.0,TCHC,13,Toronto Centre,176 THE ESPLANADE,7,220,2021-04-23,67,Evaluation needs to be conducted in 2 years,19,3.0,4.0,4.0,3.0,3.0,4.0,3.0,3.0,3.0,,3.0,3.0,4.0,3.0,4.0,4.0,3.0,4.0,3.0,3.0,S1339,43.649017812,-79.367964945,315435.409,4834128.066000001
131337,4156748,2017.0,2021,2009.0,TCHC,13,Toronto Centre,501 ADELAIDE ST E,13,180,2021-04-23,71,Evaluation needs to be conducted in 2 years,19,3.0,4.0,4.0,2.0,3.0,3.0,4.0,3.0,3.0,4.0,3.0,4.0,3.0,4.0,4.0,4.0,,4.0,4.0,4.0,S1335,43.65255869,-79.365341193,315646.432,4834521.781
131338,4152927,2017.0,2021,1982.0,SOCIAL HOUSING,4,Parkdale-High Park,1700 BLOOR ST W,9,115,2021-04-23,80,Evaluation needs to be conducted in 2 years,19,4.0,4.0,5.0,3.0,4.0,4.0,4.0,4.0,4.0,,3.0,3.0,5.0,4.0,4.0,4.0,4.0,4.0,4.0,5.0,S0429,43.655404214200004,-79.4584260885,308137.86,4834829.083000001
131339,4152907,2017.0,2021,1967.0,PRIVATE,4,Parkdale-High Park,1 RUNNYMEDE RD,4,28,2021-04-23,68,Evaluation needs to be conducted in 2 years,16,3.0,4.0,4.0,3.0,4.0,3.0,,3.0,,3.0,2.0,3.0,5.0,3.0,3.0,4.0,,3.0,4.0,,S0430,43.646159833,-79.473952107,306885.53,4833802.545
131340,4356202,2018.0,2021,2017.0,PRIVATE,4,Parkdale-High Park,36 SPENCER AVE,8,46,2021-04-23,91,Evaluation needs to be conducted in 3 years,16,5.0,4.0,3.0,5.0,5.0,5.0,5.0,5.0,4.0,,5.0,4.0,5.0,5.0,4.0,5.0,,4.0,,,S0437,43.634953301,-79.42999614600001,310432.662,4832559.495
131341,4153786,2017.0,2021,1956.0,PRIVATE,15,Don Valley West,299 FORMAN AVE,4,29,2021-04-23,48,Building Audit,15,2.0,2.0,3.0,2.0,1.0,2.0,,3.0,,,1.0,1.0,4.0,3.0,3.0,3.0,,3.0,3.0,,N1530,43.7077721579,-79.38523195970001,314033.795,4840652.473
131342,4883232,,2021,,PRIVATE,14,Toronto-Danforth,111 COSBURN AVE,3,23,2021-04-23,69,Evaluation needs to be conducted in 2 years,15,3.0,4.0,3.0,4.0,2.0,4.0,,4.0,,,3.0,2.0,5.0,3.0,4.0,4.0,,4.0,3.0,,S1422,43.6892545764,-79.3481301211,317027.601,4838599.943
131343,4152908,2017.0,2021,1967.0,PRIVATE,4,Parkdale-High Park,2 KENNEDY AVE,4,25,2021-04-23,66,Evaluation needs to be conducted in 2 years,16,3.0,4.0,4.0,3.0,4.0,3.0,,3.0,,3.0,2.0,3.0,4.0,3.0,3.0,4.0,,3.0,4.0,,S0430,43.646232595,-79.473567835,306916.528,4833810.638
131344,4286254,2017.0,2021,2014.0,TCHC,13,Toronto Centre,585 KING ST E,8,128,2021-04-23,93,Evaluation needs to be conducted in 3 years,19,4.0,5.0,4.0,5.0,5.0,5.0,5.0,4.0,5.0,,4.0,4.0,5.0,5.0,5.0,5.0,5.0,4.0,5.0,4.0,S1336,,,316351.135,4834942.491
131345,4154317,2017.0,2021,1955.0,PRIVATE,5,York South-Weston,2641 KEELE ST,3,21,2021-04-23,76,Evaluation needs to be conducted in 2 years,15,3.0,4.0,5.0,4.0,3.0,3.0,,5.0,,,3.0,4.0,5.0,3.0,4.0,4.0,,4.0,3.0,,W0523,43.7212489547,-79.4801097422,306387.12,4842143.426
131346,4154318,2017.0,2021,1955.0,PRIVATE,5,York South-Weston,2643 KEELE ST,3,21,2021-04-23,79,Evaluation needs to be conducted in 2 years,15,3.0,4.0,5.0,4.0,3.0,4.0,,5.0,,,3.0,4.0,5.0,4.0,4.0,4.0,,4.0,3.0,,W0523,43.7214377467,-79.4800527755,306391.705,4842164.401000001
131347,4154319,2018.0,2021,1953.0,PRIVATE,5,York South-Weston,2645 KEELE ST,3,21,2021-04-23,76,Evaluation needs to be conducted in 2 years,15,3.0,4.0,5.0,3.0,4.0,4.0,,4.0,,,3.0,4.0,5.0,3.0,4.0,4.0,,4.0,3.0,,W0523,43.7216077716,-79.4801053562,306387.464,4842183.289
131348,4154321,2017.0,2021,1960.0,PRIVATE,5,York South-Weston,2647 KEELE ST,3,33,2021-04-23,79,Evaluation needs to be conducted in 2 years,15,3.0,4.0,5.0,3.0,3.0,3.0,,4.0,,,3.0,4.0,5.0,5.0,4.0,4.0,,5.0,4.0,,W0523,43.7218557003,-79.4808147675,306330.299,4842210.82
131349,4152815,2017.0,2021,1977.0,TCHC,24,Scarborough-Guildwood,65 GREENCREST CRCT,13,400,2021-04-23,76,Evaluation needs to be conducted in 2 years,19,4.0,4.0,3.0,3.0,4.0,3.0,3.0,4.0,4.0,,4.0,3.0,4.0,5.0,3.0,4.0,5.0,4.0,4.0,4.0,E2430,43.7599953268,-79.22179743939999,327185.56,4846485.164
131350,4152943,2017.0,2021,1940.0,PRIVATE,4,Parkdale-High Park,340 HIGH PARK AVE,3,10,2021-04-23,64,Evaluation needs to be conducted in 1 year,15,3.0,3.0,4.0,3.0,3.0,3.0,,3.0,,,3.0,3.0,5.0,3.0,3.0,3.0,,3.0,3.0,,S0424,43.665283034,-79.4705575166,307158.849,4835926.123
131351,4154045,2017.0,2021,1994.0,SOCIAL HOUSING,19,Beaches-East York,10 GOWER ST,7,164,2021-04-22,87,Evaluation needs to be conducted in 3 years,19,5.0,4.0,5.0,5.0,5.0,5.0,4.0,4.0,5.0,,4.0,3.0,5.0,4.0,4.0,4.0,4.0,4.0,4.0,5.0,S1927,43.702657978000005,-79.297997207,321065.183,4840098.537
131352,4155085,2017.0,2021,1958.0,PRIVATE,5,York South-Weston,1650 KEELE ST,4,22,2021-04-22,74,Evaluation needs to be conducted in 2 years,17,4.0,3.0,5.0,4.0,3.0,3.0,,4.0,,3.0,3.0,4.0,4.0,4.0,4.0,4.0,4.0,4.0,3.0,,W0536,43.683492700100004,-79.47263124439999,306990.985,4837949.057
131353,4153720,2020.0,2021,1988.0,SOCIAL HOUSING,19,Beaches-East York,2526 DANFORTH AVE,7,48,2021-04-22,78,Evaluation needs to be conducted in 2 years,19,4.0,4.0,4.0,4.0,4.0,4.0,4.0,4.0,4.0,,3.0,4.0,4.0,4.0,3.0,4.0,3.0,4.0,4.0,5.0,S1929,43.6883174325,-79.3025563055,320701.73,4838503.548
131354,4155614,2019.0,2021,1991.0,SOCIAL HOUSING,19,Beaches-East York,1577 DANFORTH AVE,6,126,2021-04-22,77,Evaluation needs to be conducted in 2 years,19,4.0,4.0,4.0,4.0,4.0,4.0,4.0,4.0,3.0,,4.0,3.0,5.0,4.0,4.0,4.0,3.0,4.0,3.0,4.0,S1931,43.6831806444,-79.32304617930001,319051.152,4837929.136
131355,4154564,2017.0,2021,1953.0,PRIVATE,8,Eglinton-Lawrence,30 COVINGTON RD,4,26,2021-04-22,76,Evaluation needs to be conducted in 2 years,15,4.0,4.0,5.0,3.0,4.0,4.0,,4.0,,,4.0,3.0,5.0,4.0,3.0,3.0,,4.0,3.0,,N0823,43.720608211999995,-79.43290764470001,310190.42100000003,4842074.228999999
131356,4155726,2017.0,2021,1989.0,TCHC,19,Beaches-East York,33 COATSWORTH CRES,5,128,2021-04-22,65,Evaluation needs to be conducted in 1 year,19,3.0,4.0,4.0,3.0,3.0,3.0,3.0,4.0,3.0,,2.0,3.0,3.0,4.0,3.0,4.0,4.0,3.0,3.0,3.0,S1931,43.6792629925,-79.3201512401,319285.482,4837494.411
131357,4155059,2017.0,2021,1960.0,PRIVATE,8,Eglinton-Lawrence,2495 DUFFERIN ST,3,15,2021-04-22,51,Evaluation needs to be conducted in 1 year,14,3.0,2.0,4.0,2.0,1.0,2.0,,3.0,,,1.0,1.0,5.0,3.0,3.0,2.0,,4.0,,,N0831,43.701727487,-79.4516400175,308682.24,4839975.612
131358,4153683,2017.0,2021,1955.0,TCHC,19,Beaches-East York,98 ELMER AVE,4,36,2021-04-22,69,Evaluation needs to be conducted in 2 years,17,3.0,3.0,4.0,3.0,4.0,2.0,,4.0,,,4.0,3.0,4.0,4.0,4.0,4.0,3.0,3.0,3.0,4.0,S1938,43.67234454850001,-79.30515721409999,320496.219,4836728.4969999995
131359,4153455,2018.0,2021,1991.0,SOCIAL HOUSING,13,Toronto Centre,177 MUTUAL ST,10,42,2021-04-22,74,Evaluation needs to be conducted in 2 years,17,3.0,3.0,4.0,3.0,4.0,4.0,2.0,3.0,3.0,,3.0,4.0,5.0,4.0,4.0,4.0,,5.0,5.0,,S1328,43.6595590254,-79.3765361369,314742.506,4835297.1280000005
131360,4153566,2017.0,2021,1984.0,TCHC,13,Toronto Centre,540 QUEEN ST E,6,44,2021-04-22,81,Evaluation needs to be conducted in 3 years,19,4.0,4.0,5.0,4.0,4.0,4.0,3.0,5.0,4.0,,3.0,4.0,5.0,4.0,5.0,4.0,4.0,4.0,3.0,4.0,S1330,43.657342412,-79.357649785,316265.96,4835054.266
131361,4156480,2017.0,2021,1966.0,TCHC,19,Beaches-East York,90 PARMA CRT,7,92,2021-04-22,73,Evaluation needs to be conducted in 2 years,18,3.0,4.0,5.0,4.0,4.0,3.0,4.0,3.0,3.0,,4.0,4.0,4.0,4.0,3.0,3.0,3.0,4.0,4.0,,S1923,43.717195772,-79.30099923600001,320819.363,4841713.06
131362,4153050,2017.0,2021,1967.0,PRIVATE,4,Parkdale-High Park,244 RONCESVALLES AVE,3,22,2021-04-22,76,Evaluation needs to be conducted in 2 years,15,3.0,4.0,4.0,3.0,3.0,4.0,,3.0,,4.0,4.0,4.0,5.0,4.0,4.0,4.0,,4.0,,,S0432,43.6458748737,-79.4493623432,308869.575,4833770.791999999
131363,4154520,2017.0,2021,1965.0,PRIVATE,8,Eglinton-Lawrence,1 MARQUETTE AVE,4,24,2021-04-22,68,Evaluation needs to be conducted in 2 years,16,3.0,3.0,5.0,3.0,3.0,3.0,,3.0,,,4.0,3.0,5.0,3.0,3.0,3.0,3.0,4.0,3.0,,N0823,43.733779943500004,-79.43365665489999,310128.895,4843537.493
131364,4154528,2017.0,2021,1956.0,PRIVATE,8,Eglinton-Lawrence,78 NEPTUNE DR,3,12,2021-04-22,58,Evaluation needs to be conducted in 1 year,16,3.0,3.0,3.0,3.0,3.0,3.0,,3.0,,,3.0,2.0,4.0,2.0,2.0,3.0,3.0,3.0,3.0,,N0823,43.7328466433,-79.4361394574,309928.972,4843433.651000001
131365,4155083,2017.0,2021,1965.0,PRIVATE,5,York South-Weston,7 NASHVILLE AVE,4,23,2021-04-22,82,Evaluation needs to be conducted in 3 years,17,4.0,4.0,5.0,4.0,4.0,3.0,,4.0,,3.0,4.0,5.0,5.0,4.0,4.0,4.0,4.0,5.0,4.0,,W0536,43.683178102,-79.4735022306,306920.77,4837914.084
131366,4154046,2017.0,2021,1968.0,SOCIAL HOUSING,19,Beaches-East York,7 GLENBURN AVE,6,55,2021-04-22,72,Evaluation needs to be conducted in 2 years,19,4.0,4.0,4.0,4.0,4.0,3.0,4.0,2.0,3.0,,3.0,3.0,4.0,3.0,4.0,4.0,3.0,4.0,4.0,4.0,S1927,43.706859873,-79.29707452939999,321138.67600000004,4840564.587
131367,4152971,2018.0,2021,1965.0,PRIVATE,4,Parkdale-High Park,100 TYNDALL AVE,6,48,2021-04-22,78,Evaluation needs to be conducted in 2 years,16,4.0,4.0,5.0,4.0,4.0,4.0,,4.0,3.0,,4.0,4.0,5.0,4.0,3.0,3.0,,4.0,3.0,,S0437,43.6364200969,-79.4289537195,310516.904,4832721.558
131368,4152951,2017.0,2021,1957.0,PRIVATE,4,Parkdale-High Park,99 TYNDALL AVE,9,70,2021-04-22,66,Evaluation needs to be conducted in 2 years,17,3.0,4.0,5.0,2.0,3.0,4.0,,2.0,4.0,,2.0,4.0,5.0,3.0,3.0,3.0,3.0,3.0,3.0,,S0437,43.6366349836,-79.4276516523,310621.94399999996,4832745.515
131369,4152975,2018.0,2021,1965.0,PRIVATE,4,Parkdale-High Park,24 TYNDALL AVE,7,73,2021-04-22,74,Evaluation needs to be conducted in 2 years,17,4.0,2.0,5.0,2.0,4.0,5.0,,3.0,4.0,,3.0,4.0,5.0,4.0,3.0,4.0,4.0,4.0,3.0,,S0437,43.6351285886,-79.4284822778,310555.059,4832578.112
131370,4152641,2019.0,2021,1954.0,PRIVATE,21,Scarborough Centre,1637 VICTORIA PARK AVE,4,26,2021-04-22,89,Evaluation needs to be conducted in 3 years,17,5.0,3.0,5.0,5.0,5.0,4.0,,4.0,,5.0,3.0,5.0,5.0,5.0,5.0,3.0,5.0,4.0,5.0,,E2131,43.732195061999995,-79.3052538634,320472.882,4843377.643999999
131371,4153063,2017.0,2021,1959.0,TCHC,4,Parkdale-High Park,20 WEST LODGE AVE,11,299,2021-04-22,80,Evaluation needs to be conducted in 2 years,15,4.0,4.0,4.0,2.0,4.0,3.0,,4.0,4.0,,4.0,4.0,5.0,4.0,5.0,4.0,,5.0,,,S0435,43.6421900653,-79.4363583389,309918.979,4833362.107
131372,4153639,2019.0,2021,1915.0,PRIVATE,14,Toronto-Danforth,279 WOODFIELD RD,4,42,2021-04-22,42,Building Audit,13,2.0,1.0,1.0,1.0,,2.0,,4.0,,,1.0,1.0,4.0,3.0,2.0,2.0,,3.0,,,S1439,43.6716640558,-79.323704314,319000.793,4836649.59
131373,4153716,2017.0,2021,1956.0,PRIVATE,19,Beaches-East York,619 WOODBINE AVE,4,50,2021-04-22,86,Evaluation needs to be conducted in 3 years,16,5.0,4.0,5.0,4.0,4.0,5.0,,5.0,,,4.0,5.0,5.0,4.0,4.0,4.0,3.0,4.0,4.0,,S1935,43.677895694700005,-79.3088113763,320200.146,4837344.5430000005
131374,4152956,2018.0,2021,1965.0,PRIVATE,4,Parkdale-High Park,31 SPENCER AVE,6,54,2021-04-22,71,Evaluation needs to be conducted in 2 years,17,3.0,4.0,5.0,3.0,4.0,4.0,,3.0,3.0,,4.0,4.0,5.0,3.0,3.0,3.0,3.0,3.0,3.0,,S0437,43.635080626000004,-79.429194517,310497.332,4832573.691000001
131375,4155598,2017.0,2021,1978.0,TCHC,11,University-Rosedale,6 HENRY ST,4,105,2021-04-22,73,Evaluation needs to be conducted in 2 years,17,3.0,4.0,4.0,3.0,4.0,4.0,3.0,3.0,4.0,,3.0,4.0,5.0,4.0,3.0,3.0,,4.0,4.0,,S1144,43.6562790378,-79.3937588727,313353.834,4834930.811000001
131376,4152811,2017.0,2021,1991.0,SOCIAL HOUSING,24,Scarborough-Guildwood,450 B SCARBOROUGH GOLF CLUB RD,5,112,2021-04-22,86,Evaluation needs to be conducted in 3 years,18,4.0,4.0,5.0,4.0,4.0,5.0,5.0,4.0,4.0,,4.0,4.0,5.0,4.0,5.0,4.0,,4.0,4.0,4.0,E2430,43.7546186553,-79.2171707539,327651.524,4845946.183
131377,4152801,2017.0,2021,1961.0,PRIVATE,24,Scarborough-Guildwood,5 CEDAR DR,10,86,2021-04-21,66,Evaluation needs to be conducted in 2 years,18,3.0,3.0,4.0,3.0,3.0,4.0,2.0,4.0,3.0,,3.0,4.0,3.0,3.0,4.0,3.0,3.0,3.0,4.0,,E2433,43.744527226,-79.2154577667,327701.9,4844768.433999999
131378,4156182,2017.0,2021,1969.0,TCHC,14,Toronto-Danforth,80 BLAKE ST,14,190,2021-04-21,77,Evaluation needs to be conducted in 2 years,20,4.0,4.0,5.0,3.0,4.0,3.0,4.0,4.0,5.0,3.0,4.0,4.0,5.0,3.0,4.0,4.0,4.0,3.0,3.0,4.0,S1430,43.67437498899999,-79.339480129,317736.256,4836964.143
131379,4152936,2017.0,2021,1914.0,PRIVATE,4,Parkdale-High Park,1914 BLOOR ST W,3,16,2021-04-21,81,Evaluation needs to be conducted in 3 years,15,4.0,4.0,5.0,4.0,5.0,4.0,,5.0,,,4.0,3.0,4.0,4.0,4.0,4.0,,4.0,3.0,,S0428,43.653724315,-79.466048263,307522.842,4834643.12
131380,4152937,2017.0,2021,1914.0,PRIVATE,4,Parkdale-High Park,1920 BLOOR ST W,3,16,2021-04-21,83,Evaluation needs to be conducted in 3 years,15,4.0,4.0,5.0,4.0,5.0,4.0,,5.0,,,4.0,3.0,5.0,4.0,4.0,4.0,,4.0,3.0,,S0428,43.653685383,-79.466255527,307506.125,4834638.788
131381,4152909,2017.0,2021,1930.0,PRIVATE,4,Parkdale-High Park,2001 BLOOR ST W,4,60,2021-04-21,81,Evaluation needs to be conducted in 3 years,14,4.0,4.0,5.0,4.0,,4.0,,4.0,4.0,,4.0,3.0,5.0,4.0,4.0,4.0,,4.0,,,S0431,43.651822183,-79.47144373100001,307087.937,4834430.705
131382,4152777,2017.0,2021,1979.0,TCHC,20,Scarborough Southwest,17 BRIMLEY RD,11,330,2021-04-21,88,Evaluation needs to be conducted in 3 years,19,5.0,4.0,5.0,4.0,4.0,5.0,4.0,4.0,5.0,,5.0,5.0,5.0,4.0,4.0,5.0,4.0,4.0,4.0,4.0,E2026,43.7204681732,-79.2391056557,325805.62899999996,4842089.426
131383,4261240,2017.0,2021,1950.0,PRIVATE,14,Toronto-Danforth,814 BROADVIEW AVE,3,24,2021-04-21,61,Evaluation needs to be conducted in 1 year,14,3.0,3.0,4.0,3.0,3.0,2.0,,3.0,,,3.0,4.0,3.0,3.0,3.0,3.0,,3.0,,,S1424,43.67792961,-79.3589234686,316159.63899999997,4837340.27
131384,4155610,2017.0,2021,1965.0,TCHC,19,Beaches-East York,1080 EASTERN AVE,6,41,2021-04-21,81,Evaluation needs to be conducted in 3 years,18,4.0,4.0,5.0,5.0,4.0,5.0,4.0,4.0,3.0,,4.0,4.0,5.0,4.0,3.0,4.0,4.0,4.0,3.0,,S1941,43.665859716199996,-79.3160434122,319619.997,4836006.058999999
131385,4153795,2017.0,2021,1960.0,PRIVATE,15,Don Valley West,551 EGLINTON AVE E,8,54,2021-04-21,70,Evaluation needs to be conducted in 2 years,18,4.0,4.0,4.0,3.0,3.0,3.0,2.0,3.0,3.0,,3.0,4.0,5.0,4.0,4.0,3.0,4.0,4.0,3.0,,N1530,43.710473290500005,-79.3785880328,314568.772,4840953.298
131386,4154766,2017.0,2021,1981.0,TCHC,16,Don Valley East,10 DEAUVILLE LANE,7,247,2021-04-21,78,Evaluation needs to be conducted in 2 years,19,4.0,4.0,4.0,3.0,4.0,4.0,4.0,4.0,4.0,,3.0,4.0,5.0,4.0,4.0,4.0,4.0,4.0,3.0,4.0,N1630,43.7175537141,-79.3316723208,318347.963,4841746.448
131387,4153157,2017.0,2021,1989.0,TCHC,11,University-Rosedale,72 CLINTON ST,7,157,2021-04-21,81,Evaluation needs to be conducted in 3 years,18,4.0,4.0,5.0,5.0,4.0,5.0,5.0,3.0,4.0,,4.0,5.0,3.0,4.0,3.0,3.0,4.0,4.0,4.0,,S1133,43.655697992200004,-79.41495949600001,311643.94899999996,4834864.327
131388,4152631,2017.0,2021,1955.0,PRIVATE,21,Scarborough Centre,40 CRAIGTON DR,4,30,2021-04-21,89,Evaluation needs to be conducted in 3 years,16,5.0,3.0,5.0,4.0,4.0,4.0,,5.0,,,4.0,3.0,5.0,4.0,5.0,5.0,5.0,5.0,5.0,,E2131,43.727425208,-79.2987499996,320998.094,4842848.978999999
131389,4153833,2017.0,2021,1956.0,TCHC,15,Don Valley West,28 BROADWAY AVE,3,75,2021-04-21,74,Evaluation needs to be conducted in 2 years,17,3.0,4.0,5.0,3.0,3.0,4.0,3.0,4.0,3.0,,3.0,4.0,5.0,4.0,4.0,4.0,,4.0,3.0,,N1526,43.71043048399999,-79.397121509,313074.95399999997,4840947.509
131390,4153025,2018.0,2021,1965.0,PRIVATE,4,Parkdale-High Park,182 JAMESON AVE,11,82,2021-04-21,61,Evaluation needs to be conducted in 1 year,17,4.0,3.0,4.0,2.0,3.0,3.0,,3.0,3.0,,2.0,3.0,5.0,2.0,3.0,4.0,3.0,3.0,2.0,,S0436,43.6389025378,-79.4370268337,309865.315,4832996.847
131391,4168808,2017.0,2021,1955.0,PRIVATE,4,Parkdale-High Park,23 JANE ST,3,18,2021-04-21,68,Evaluation needs to be conducted in 2 years,15,3.0,4.0,5.0,3.0,2.0,3.0,,4.0,,,3.0,3.0,5.0,3.0,3.0,3.0,,4.0,3.0,,S0426,43.650079954300004,-79.48433563399999,306048.00899999996,4834236.904
131392,4154326,2017.0,2021,1960.0,PRIVATE,5,York South-Weston,1607 JANE ST,3,29,2021-04-21,80,Evaluation needs to be conducted in 2 years,16,4.0,4.0,5.0,4.0,4.0,4.0,,4.0,,,4.0,5.0,5.0,3.0,4.0,4.0,3.0,4.0,3.0,,W0528,43.7007645631,-79.5028199855,304557.17699999997,4839867.602
131393,4155140,2017.0,2021,1960.0,PRIVATE,5,York South-Weston,1848 JANE ST,3,21,2021-04-21,74,Evaluation needs to be conducted in 2 years,16,3.0,3.0,5.0,3.0,3.0,3.0,,4.0,,,4.0,3.0,5.0,4.0,4.0,4.0,3.0,4.0,4.0,,W0525,43.7079730961,-79.5055309072,304338.744,4840668.422
131394,4155141,2018.0,2021,1954.0,PRIVATE,5,York South-Weston,1860 JANE ST,4,40,2021-04-21,74,Evaluation needs to be conducted in 2 years,16,3.0,3.0,5.0,3.0,3.0,4.0,,4.0,,,4.0,4.0,5.0,3.0,3.0,4.0,4.0,4.0,3.0,,W0525,43.708761091999996,-79.50573988,304321.91,4840755.962
131395,4152814,2017.0,2021,1970.0,PRIVATE,24,Scarborough-Guildwood,20 GREENCREST CRCT,10,136,2021-04-21,85,Evaluation needs to be conducted in 3 years,19,5.0,5.0,5.0,4.0,4.0,5.0,4.0,4.0,5.0,3.0,5.0,4.0,5.0,4.0,4.0,4.0,4.0,4.0,3.0,,E2430,43.7583695279,-79.2234312468,327054.605,4846304.108
131396,4154517,2017.0,2021,1956.0,PRIVATE,8,Eglinton-Lawrence,27 HOTSPUR RD,3,11,2021-04-21,72,Evaluation needs to be conducted in 2 years,17,3.0,3.0,5.0,4.0,3.0,3.0,,3.0,,4.0,4.0,4.0,4.0,4.0,4.0,3.0,3.0,4.0,3.0,,N0823,43.732497833100005,-79.4349702821,310023.188,4843394.977
131397,4152893,2017.0,2021,1991.0,TCHC,25,Scarborough-Rouge Park,1315 NEILSON RD,5,126,2021-04-21,78,Evaluation needs to be conducted in 2 years,18,4.0,4.0,4.0,3.0,4.0,4.0,4.0,4.0,4.0,,3.0,4.0,5.0,4.0,3.0,4.0,,4.0,4.0,4.0,E2524,43.807786956,-79.2188121812,327408.037,4851795.432
131398,4154068,2017.0,2021,1979.0,SOCIAL HOUSING,19,Beaches-East York,850 O'CONNOR DR,3,109,2021-04-21,82,Evaluation needs to be conducted in 3 years,19,5.0,4.0,5.0,4.0,5.0,3.0,4.0,4.0,4.0,,4.0,4.0,5.0,4.0,4.0,4.0,3.0,4.0,3.0,5.0,S1922,43.7070607671,-79.31227990859999,319913.196,4840584.078
131399,4408585,2018.0,2021,1948.0,PRIVATE,11,University-Rosedale,130 MACPHERSON AVE,3,26,2021-04-21,74,Evaluation needs to be conducted in 2 years,14,4.0,4.0,4.0,3.0,4.0,3.0,,3.0,,,3.0,5.0,5.0,4.0,3.0,3.0,,4.0,,,S1128,43.6783605408,-79.3950701921,313244.997,4837383.81
131400,4155866,2017.0,2021,2008.0,TCHC,14,Toronto-Danforth,50 MATILDA ST,4,56,2021-04-21,80,Evaluation needs to be conducted in 2 years,19,4.0,4.0,5.0,4.0,4.0,4.0,4.0,4.0,4.0,,4.0,4.0,5.0,4.0,4.0,4.0,4.0,3.0,3.0,4.0,S1434,43.660237712,-79.35303424899999,316637.682,4835376.563
131401,4243767,2017.0,2021,1900.0,PRIVATE,4,Parkdale-High Park,28 MAYNARD AVE,3,20,2021-04-21,77,Evaluation needs to be conducted in 2 years,14,4.0,4.0,5.0,3.0,4.0,4.0,,5.0,,,3.0,3.0,5.0,3.0,4.0,3.0,,4.0,,,S0436,43.6380072384,-79.43803496470001,309784.048,4832897.33
131402,4152842,2017.0,2021,1974.0,TCHC,25,Scarborough-Rouge Park,4205 LAWRENCE AVE E,14,345,2021-04-21,71,Evaluation needs to be conducted in 2 years,18,3.0,4.0,4.0,3.0,3.0,4.0,3.0,2.0,4.0,,2.0,4.0,5.0,4.0,4.0,4.0,4.0,4.0,3.0,,E2537,43.76799274060001,-79.185350274,330116.903,4847384.065
131403,4155283,2017.0,2021,1958.0,PRIVATE,3,Etobicoke-Lakeshore,10 KINGS POINT DR,3,19,2021-04-21,80,Evaluation needs to be conducted in 2 years,16,4.0,4.0,4.0,3.0,4.0,4.0,,3.0,,4.0,4.0,4.0,5.0,5.0,4.0,3.0,5.0,4.0,,,W0327,43.63983146819999,-79.4928529071,305360.98600000003,4833098.271000001
131404,4153673,2017.0,2021,1925.0,PRIVATE,19,Beaches-East York,1836 QUEEN ST E,3,30,2021-04-21,57,Evaluation needs to be conducted in 1 year,15,3.0,3.0,4.0,2.0,2.0,3.0,,3.0,,,2.0,2.0,4.0,3.0,3.0,3.0,,3.0,3.0,,S1937,43.668459839700006,-79.3083945127,320236.165,4836296.316000001
131405,4653431,2019.0,2021,1965.0,PRIVATE,19,Beaches-East York,2178 QUEEN ST E,3,21,2021-04-21,64,Evaluation needs to be conducted in 1 year,14,3.0,3.0,4.0,3.0,,3.0,,3.0,,,3.0,3.0,4.0,3.0,4.0,3.0,,3.0,3.0,,S1939,43.6722063299,-79.2908934269,321646.453,4836715.931
131406,4316602,2018.0,2021,1951.0,PRIVATE,19,Beaches-East York,995 O'CONNOR DR,3,12,2021-04-21,76,Evaluation needs to be conducted in 2 years,15,4.0,4.0,4.0,4.0,3.0,4.0,,4.0,,,3.0,4.0,5.0,4.0,4.0,3.0,,4.0,3.0,,S1924,43.7091921136,-79.3096855497,320121.73699999996,4840821.33
131407,4848750,2021.0,2021,1954.0,PRIVATE,19,Beaches-East York,996 O'CONNOR DR,3,18,2021-04-21,49,Building Audit,15,2.0,3.0,2.0,2.0,2.0,3.0,,3.0,,,2.0,2.0,3.0,3.0,3.0,2.0,,2.0,3.0,,S1921,43.709175201899995,-79.3105723901,320050.275,4840819.291
131408,4326897,,2021,1951.0,PRIVATE,19,Beaches-East York,1139 O'CONNOR DR,3,12,2021-04-21,83,Evaluation needs to be conducted in 3 years,15,5.0,4.0,4.0,5.0,3.0,5.0,,3.0,,,5.0,3.0,5.0,4.0,4.0,4.0,,4.0,4.0,,S1924,43.7114376749,-79.30789566060001,320265.406,4841071.132
131409,4156514,2017.0,2021,1970.0,PRIVATE,4,Parkdale-High Park,7 O'HARA AVE,4,16,2021-04-21,70,Evaluation needs to be conducted in 2 years,14,3.0,4.0,4.0,3.0,,3.0,,3.0,,,3.0,3.0,5.0,4.0,3.0,3.0,4.0,4.0,,,S0435,43.6416711241,-79.4340706425,310103.595,4833304.59
131410,4155205,2017.0,2021,1959.0,PRIVATE,4,Parkdale-High Park,4029 OLD DUNDAS ST,8,29,2021-04-21,56,Evaluation needs to be conducted in 1 year,18,3.0,3.0,4.0,2.0,2.0,3.0,,2.0,2.0,3.0,2.0,4.0,5.0,2.0,3.0,3.0,1.0,3.0,3.0,,S0421,43.6639708719,-79.5021353711,304612.07,4835780.002
131411,4155293,2017.0,2021,1955.0,PRIVATE,3,Etobicoke-Lakeshore,69 OLD MILL TER,4,26,2021-04-21,78,Evaluation needs to be conducted in 2 years,16,4.0,4.0,4.0,3.0,4.0,4.0,,4.0,,4.0,4.0,3.0,5.0,4.0,4.0,4.0,,3.0,4.0,,W0327,43.6497102952,-79.498711457,304888.256,4834195.725
131412,4154177,2017.0,2021,1947.0,PRIVATE,15,Don Valley West,871 MILLWOOD RD,3,15,2021-04-21,71,Evaluation needs to be conducted in 2 years,15,3.0,3.0,4.0,3.0,,4.0,,4.0,,2.0,3.0,2.0,5.0,4.0,4.0,4.0,,5.0,3.0,,N1535,43.70375659770001,-79.3653122731,315639.846,4840208.712
131413,4154061,2017.0,2021,1983.0,SOCIAL HOUSING,19,Beaches-East York,2701-2703 ST CLAIR AVE E,5,127,2021-04-21,91,Evaluation needs to be conducted in 3 years,18,5.0,5.0,5.0,4.0,5.0,5.0,5.0,4.0,5.0,,4.0,4.0,5.0,4.0,4.0,4.0,,4.0,5.0,5.0,S1927,43.705532569,-79.3114443458,319980.908,4840414.447
131414,4364249,2018.0,2021,1953.0,PRIVATE,19,Beaches-East York,9 STAG HILL DR,4,15,2021-04-21,84,Evaluation needs to be conducted in 3 years,15,4.0,4.0,5.0,4.0,4.0,4.0,,4.0,,,4.0,4.0,5.0,4.0,4.0,4.0,,4.0,5.0,,S1927,43.70336356399999,-79.310527323,320055.105,4840174.598999999
131415,4700131,,2021,,PRIVATE,7,Humber River-Black Creek,25 SAN ROMANOWAY,19,232,2021-04-21,64,Evaluation needs to be conducted in 1 year,18,4.0,3.0,4.0,2.0,3.0,3.0,3.0,3.0,4.0,,3.0,4.0,4.0,3.0,3.0,3.0,3.0,3.0,3.0,,W0725,43.7596379237,-79.51715959270001,303402.886,4846408.208000001
131416,4333368,2018.0,2021,1977.0,PRIVATE,13,Toronto Centre,545 SHERBOURNE ST,30,300,2021-04-21,85,Evaluation needs to be conducted in 3 years,19,4.0,4.0,4.0,4.0,4.0,4.0,4.0,4.0,5.0,4.0,4.0,4.0,5.0,5.0,5.0,4.0,5.0,4.0,4.0,,S1323,43.6685668149,-79.3748331969,314878.356,4836298.032
131417,4333382,2018.0,2021,1978.0,PRIVATE,13,Toronto Centre,555 SHERBOURNE ST,30,292,2021-04-21,87,Evaluation needs to be conducted in 3 years,19,4.0,5.0,4.0,4.0,4.0,4.0,4.0,4.0,5.0,4.0,4.0,4.0,5.0,5.0,5.0,5.0,5.0,4.0,4.0,,S1323,43.66956979,-79.375208558,314847.652,4836410.365
131418,4333391,2018.0,2021,1978.0,PRIVATE,13,Toronto Centre,565 SHERBOURNE ST,30,514,2021-04-21,88,Evaluation needs to be conducted in 3 years,20,4.0,5.0,4.0,4.0,4.0,4.0,4.0,4.0,5.0,4.0,4.0,4.0,5.0,5.0,5.0,4.0,5.0,5.0,4.0,5.0,S1323,43.669960972,-79.375430599,314829.679,4836453.8
131419,4250094,2018.0,2021,1922.0,PRIVATE,4,Parkdale-High Park,81 WILSON PARK RD,3,16,2021-04-21,70,Evaluation needs to be conducted in 2 years,14,3.0,3.0,5.0,3.0,3.0,4.0,,4.0,,,3.0,2.0,3.0,4.0,4.0,4.0,,4.0,,,S0436,43.6391098783,-79.44211512140001,309454.75899999996,4833019.6
131420,4154032,2017.0,2021,1940.0,PRIVATE,8,Eglinton-Lawrence,3464 YONGE ST,4,27,2021-04-21,61,Evaluation needs to be conducted in 1 year,15,3.0,3.0,5.0,2.0,3.0,3.0,,3.0,,,2.0,3.0,4.0,3.0,3.0,3.0,,3.0,3.0,,N0825,43.734800638900005,-79.4050159529,312435.947,4843653.143999999
131421,4154031,2017.0,2021,1940.0,PRIVATE,8,Eglinton-Lawrence,3474 YONGE ST,4,27,2021-04-21,68,Evaluation needs to be conducted in 2 years,15,3.0,3.0,5.0,2.0,3.0,3.0,,3.0,,,5.0,5.0,4.0,3.0,3.0,3.0,,3.0,3.0,,N0825,43.7349962001,-79.40513064619999,312426.683,4843674.858
131422,4156483,2017.0,2021,1967.0,TCHC,19,Beaches-East York,5 WAKUNDA PL,11,198,2021-04-21,75,Evaluation needs to be conducted in 2 years,17,4.0,4.0,5.0,3.0,3.0,4.0,3.0,4.0,4.0,,3.0,3.0,4.0,4.0,4.0,4.0,,4.0,,4.0,S1923,43.715565256400005,-79.3046724013,320524.072,4841530.268999999
131423,4152688,2017.0,2021,1989.0,TCHC,20,Scarborough Southwest,120 TOWN HAVEN PL,8,150,2021-04-21,89,Evaluation needs to be conducted in 3 years,18,4.0,5.0,5.0,5.0,5.0,5.0,5.0,4.0,4.0,,4.0,5.0,4.0,4.0,4.0,4.0,,4.0,5.0,4.0,E2024,43.7332452174,-79.2592760831,324176.346,4843503.962
131424,4152966,2017.0,2021,1956.0,PRIVATE,4,Parkdale-High Park,124 TYNDALL AVE,4,28,2021-04-21,73,Evaluation needs to be conducted in 2 years,16,3.0,3.0,5.0,4.0,4.0,4.0,,4.0,,,4.0,4.0,5.0,3.0,3.0,2.0,3.0,3.0,4.0,,S0437,43.637715924700004,-79.4293840613,310482.065,4832865.488
131425,4274213,2017.0,2021,1986.0,TCHC,10,Spadina-Fort York,20 VANAULEY ST,8,135,2021-04-21,77,Evaluation needs to be conducted in 2 years,19,4.0,4.0,5.0,3.0,4.0,4.0,3.0,3.0,4.0,4.0,3.0,3.0,5.0,4.0,4.0,4.0,4.0,4.0,4.0,,S1023,43.648931485,-79.398985647,312932.99600000004,4834114.893
131426,4153027,2017.0,2021,1917.0,PRIVATE,4,Parkdale-High Park,1479 QUEEN ST W,3,11,2021-04-20,68,Evaluation needs to be conducted in 2 years,13,3.0,4.0,4.0,3.0,,3.0,,4.0,,,3.0,3.0,5.0,3.0,3.0,3.0,,3.0,,,S0436,43.639920626999995,-79.4393647797,309675.403,4833106.528
131427,4153580,2017.0,2021,1930.0,PRIVATE,13,Toronto Centre,26 GIFFORD ST,4,15,2021-04-20,70,Evaluation needs to be conducted in 2 years,16,2.0,4.0,4.0,3.0,4.0,3.0,,4.0,,3.0,3.0,4.0,5.0,2.0,3.0,4.0,,4.0,4.0,,S1327,43.6633467567,-79.36369410409999,315777.607,4835719.536
131428,4154962,2018.0,2021,1928.0,PRIVATE,12,Toronto-St. Paul's,50 RAGLAN AVE,4,32,2021-04-20,66,Evaluation needs to be conducted in 2 years,14,3.0,3.0,5.0,3.0,3.0,3.0,,3.0,,,3.0,3.0,5.0,3.0,3.0,3.0,,3.0,,,S1229,43.6844655265,-79.4205577721,311189.247,4838059.79
131429,4154208,2017.0,2021,1955.0,PRIVATE,7,Humber River-Black Creek,1760 WILSON AVE,4,32,2021-04-20,60,Evaluation needs to be conducted in 1 year,15,3.0,3.0,3.0,3.0,3.0,3.0,,2.0,,,3.0,3.0,5.0,3.0,3.0,3.0,,3.0,2.0,,W0734,43.7194896137,-79.5165478577,303451.17600000004,4841947.966
131430,4154209,2017.0,2021,1954.0,PRIVATE,7,Humber River-Black Creek,1770 WILSON AVE,3,31,2021-04-20,63,Evaluation needs to be conducted in 1 year,15,3.0,3.0,3.0,3.0,3.0,3.0,,3.0,,,3.0,3.0,5.0,3.0,3.0,3.0,,3.0,3.0,,W0734,43.7193022696,-79.5173252308,303388.542,4841927.165
131431,4155123,,2021,1954.0,PRIVATE,5,York South-Weston,1240 WESTON RD,3,22,2021-04-20,74,Evaluation needs to be conducted in 2 years,16,3.0,3.0,5.0,4.0,3.0,3.0,,4.0,,,4.0,3.0,5.0,4.0,3.0,4.0,,4.0,3.0,4.0,W0531,43.6880806014,-79.4934709914,305310.766,4838458.456
131432,4154980,2017.0,2021,1927.0,PRIVATE,12,Toronto-St. Paul's,227 VAUGHAN RD,4,24,2021-04-20,70,Evaluation needs to be conducted in 2 years,14,3.0,4.0,5.0,3.0,2.0,3.0,,4.0,,,4.0,3.0,5.0,3.0,3.0,3.0,,4.0,,,S1229,43.6877852335,-79.4233040903,310967.502,4838428.419
131433,4155938,2017.0,2021,1964.0,PRIVATE,21,Scarborough Centre,10 TRUDELLE ST,6,84,2021-04-20,84,Evaluation needs to be conducted in 3 years,18,5.0,3.0,5.0,5.0,4.0,5.0,5.0,3.0,5.0,,4.0,5.0,5.0,3.0,5.0,5.0,3.0,3.0,3.0,,E2135,43.7402066562,-79.24491741920001,325330.686,4844280.778
131434,4155935,2017.0,2021,1964.0,PRIVATE,21,Scarborough Centre,20 TRUDELLE ST,6,84,2021-04-20,86,Evaluation needs to be conducted in 3 years,18,5.0,3.0,5.0,5.0,5.0,5.0,5.0,3.0,5.0,,4.0,5.0,5.0,3.0,5.0,5.0,3.0,3.0,3.0,,E2135,43.7404592839,-79.2437182596,325427.189,4844309.14
131435,4154821,2017.0,2021,1966.0,PRIVATE,17,Don Valley North,201 VAN HORNE AVE,18,245,2021-04-20,71,Evaluation needs to be conducted in 2 years,18,4.0,4.0,4.0,4.0,4.0,4.0,4.0,4.0,3.0,,2.0,4.0,3.0,3.0,3.0,4.0,3.0,4.0,3.0,,N1727,43.786395807,-79.353703275,316559.107,4849392.065
131436,4155639,2017.0,2021,1957.0,TCHC,8,Eglinton-Lawrence,22 VARNA DR,3,31,2021-04-20,79,Evaluation needs to be conducted in 2 years,15,4.0,4.0,5.0,3.0,4.0,4.0,,5.0,,,2.0,3.0,5.0,4.0,3.0,4.0,,4.0,5.0,,N0823,43.7196194362,-79.4407985931,309554.68,4841963.8780000005
131437,4154970,2017.0,2021,1977.0,TCHC,12,Toronto-St. Paul's,130 VAUGHAN RD,9,99,2021-04-20,85,Evaluation needs to be conducted in 3 years,19,4.0,4.0,5.0,3.0,5.0,4.0,4.0,5.0,5.0,4.0,4.0,5.0,5.0,4.0,4.0,4.0,,4.0,4.0,4.0,S1229,43.6847713094,-79.4220013405,311072.831,4838093.652
131438,4154514,2017.0,2021,1960.0,PRIVATE,8,Eglinton-Lawrence,50 NEPTUNE DR,3,12,2021-04-20,65,Evaluation needs to be conducted in 1 year,16,3.0,3.0,5.0,3.0,3.0,3.0,,3.0,,,3.0,4.0,4.0,3.0,3.0,3.0,3.0,3.0,3.0,,N0823,43.731762015,-79.434811008,310035.821,4843314.199
131439,4154260,2017.0,2021,1952.0,PRIVATE,7,Humber River-Black Creek,73 LOVILLA BLVD,3,16,2021-04-20,64,Evaluation needs to be conducted in 1 year,16,3.0,3.0,4.0,3.0,3.0,3.0,,3.0,,3.0,3.0,3.0,5.0,3.0,3.0,3.0,,3.0,3.0,,W0733,43.717730278000005,-79.5372015088,301786.885,4841753.108
131440,4152999,2017.0,2021,1960.0,PRIVATE,4,Parkdale-High Park,1475 KING ST W,3,44,2021-04-20,74,Evaluation needs to be conducted in 2 years,14,4.0,4.0,4.0,4.0,3.0,3.0,,5.0,,,3.0,4.0,4.0,3.0,3.0,4.0,,4.0,,,S0437,43.636130710399996,-79.4396082972,309657.257,4832688.775
131441,4155292,2018.0,2021,1957.0,PRIVATE,3,Etobicoke-Lakeshore,47-49 RIVERWOOD PKWY,4,21,2021-04-20,73,Evaluation needs to be conducted in 2 years,17,4.0,4.0,4.0,3.0,4.0,4.0,,4.0,,3.0,3.0,4.0,4.0,4.0,4.0,4.0,2.0,3.0,4.0,,W0327,43.640304287700005,-79.4914484566,305474.305,4833150.807
131442,4156727,2017.0,2021,1967.0,PRIVATE,17,Don Valley North,100 PARKWAY FOREST DR,17,216,2021-04-20,71,Evaluation needs to be conducted in 2 years,18,3.0,4.0,4.0,2.0,,4.0,3.0,4.0,3.0,,2.0,4.0,3.0,4.0,4.0,4.0,4.0,4.0,4.0,4.0,N1730,,,317511.715,4847942.106000001
131443,4155650,2017.0,2021,1962.0,TCHC,16,Don Valley East,51 PARKWOODS VILLAGE DR,7,81,2021-04-20,72,Evaluation needs to be conducted in 2 years,20,4.0,3.0,4.0,3.0,3.0,4.0,3.0,4.0,3.0,3.0,3.0,4.0,4.0,4.0,4.0,3.0,4.0,4.0,4.0,4.0,N1625,43.759507201000005,-79.320050542,319274.057,4846410.106000001
131444,4153061,2017.0,2021,1970.0,PRIVATE,4,Parkdale-High Park,15 O'HARA AVE,4,32,2021-04-20,67,Evaluation needs to be conducted in 2 years,14,3.0,3.0,4.0,4.0,,3.0,,4.0,,,3.0,4.0,3.0,4.0,2.0,3.0,,4.0,3.0,,S0435,43.641913610100005,-79.43409991729999,310101.212,4833331.527
131445,4154792,2017.0,2021,1990.0,TCHC,16,Don Valley East,20 SANDERLING PL,5,90,2021-04-20,80,Evaluation needs to be conducted in 2 years,19,4.0,4.0,4.0,4.0,4.0,4.0,4.0,3.0,4.0,,4.0,4.0,5.0,4.0,4.0,4.0,4.0,4.0,4.0,4.0,N1626,43.7339142779,-79.3489216558,316954.747,4843561.308
131446,4155156,2017.0,2021,1965.0,PRIVATE,5,York South-Weston,36 CHURCH ST,6,41,2021-04-20,71,Evaluation needs to be conducted in 2 years,18,3.0,3.0,5.0,3.0,3.0,4.0,,3.0,3.0,3.0,3.0,4.0,5.0,4.0,4.0,4.0,3.0,4.0,3.0,,W0524,43.7043490054,-79.52380161399999,302866.172,4840266.152
131447,4255528,2017.0,2021,1950.0,PRIVATE,3,Etobicoke-Lakeshore,3 BIRCHLEA AVE,3,10,2021-04-20,66,Evaluation needs to be conducted in 2 years,14,3.0,4.0,3.0,3.0,1.0,4.0,,4.0,,,3.0,4.0,4.0,3.0,4.0,2.0,,4.0,,,W0334,43.592678404,-79.527798887,302539.32399999996,4827860.268
131448,4154524,2017.0,2021,1957.0,PRIVATE,8,Eglinton-Lawrence,22 HOTSPUR RD,3,10,2021-04-20,72,Evaluation needs to be conducted in 2 years,17,4.0,4.0,5.0,3.0,4.0,3.0,,3.0,,4.0,3.0,4.0,5.0,3.0,3.0,3.0,3.0,4.0,3.0,,N0823,43.7331168805,-79.4348475012,310014.946,4843450.384
131449,4167451,2017.0,2021,1990.0,TCHC,10,Spadina-Fort York,125 QUEENS WHARF RD,7,73,2021-04-20,89,Evaluation needs to be conducted in 3 years,17,5.0,4.0,5.0,4.0,4.0,4.0,5.0,4.0,4.0,,4.0,5.0,5.0,5.0,5.0,5.0,,4.0,4.0,,S1035,43.639890151,-79.39933353100001,,
131450,4329040,2018.0,2021,1949.0,PRIVATE,6,York Centre,18 ROSSEAU RD,3,11,2021-04-19,78,Evaluation needs to be conducted in 2 years,16,4.0,4.0,5.0,4.0,3.0,4.0,,3.0,,2.0,4.0,4.0,5.0,4.0,4.0,4.0,,4.0,4.0,,N0629,43.7424665293,-79.4377968737,309794.673,4844502.242
131451,4329041,2018.0,2021,1949.0,PRIVATE,6,York Centre,20 ROSSEAU RD,3,11,2021-04-19,78,Evaluation needs to be conducted in 2 years,16,4.0,4.0,5.0,4.0,3.0,4.0,,3.0,,2.0,4.0,4.0,5.0,4.0,4.0,4.0,,4.0,4.0,,N0629,43.7426311682,-79.437605185,309810.099,4844520.5430000005
131452,4329042,2018.0,2021,1949.0,PRIVATE,6,York Centre,22 ROSSEAU RD,3,11,2021-04-19,78,Evaluation needs to be conducted in 2 years,16,4.0,4.0,5.0,4.0,3.0,4.0,,3.0,,2.0,4.0,4.0,5.0,4.0,4.0,4.0,,4.0,4.0,,N0629,43.7428477034,-79.4376504263,309838.12899999996,4844457.074
131453,4329043,2018.0,2021,1949.0,PRIVATE,6,York Centre,24 ROSSEAU RD,3,11,2021-04-19,78,Evaluation needs to be conducted in 2 years,16,4.0,4.0,5.0,4.0,3.0,4.0,,3.0,,2.0,4.0,4.0,5.0,4.0,4.0,4.0,,4.0,4.0,,N0629,43.7430477683,-79.4377021661,309819.873,4844504.373
131454,4153005,2017.0,2021,1900.0,PRIVATE,4,Parkdale-High Park,1609 QUEEN ST W,3,41,2021-04-19,61,Evaluation needs to be conducted in 1 year,15,2.0,3.0,3.0,3.0,3.0,4.0,,2.0,,,4.0,4.0,3.0,3.0,3.0,3.0,,3.0,3.0,,S0436,43.638738833299996,-79.4444453098,309266.777,4832978.2530000005
131455,4153004,2017.0,2021,1900.0,PRIVATE,4,Parkdale-High Park,1621 QUEEN ST W,6,74,2021-04-19,65,Evaluation needs to be conducted in 1 year,15,3.0,3.0,4.0,3.0,3.0,3.0,,3.0,,,2.0,4.0,5.0,3.0,3.0,3.0,,4.0,3.0,,S0436,43.6387782668,-79.44488373739999,309231.4,4832982.61
131456,4154923,2017.0,2021,1961.0,PRIVATE,16,Don Valley East,1244 YORK MILLS RD,4,58,2021-04-19,73,Evaluation needs to be conducted in 2 years,19,3.0,4.0,4.0,4.0,3.0,4.0,4.0,3.0,4.0,4.0,3.0,4.0,5.0,3.0,4.0,4.0,3.0,3.0,3.0,,N1622,43.7608810853,-79.3292989011,318529.31,4846560.228
131457,4154922,2017.0,2021,1961.0,PRIVATE,16,Don Valley East,1254 YORK MILLS RD,4,58,2021-04-19,72,Evaluation needs to be conducted in 2 years,19,4.0,4.0,4.0,3.0,3.0,4.0,3.0,4.0,4.0,4.0,3.0,3.0,4.0,3.0,4.0,4.0,3.0,3.0,4.0,,N1622,43.7611151725,-79.3287829754,318570.798,4846586.319
131458,4154917,2017.0,2021,1965.0,PRIVATE,16,Don Valley East,1300 YORK MILLS RD,8,112,2021-04-19,74,Evaluation needs to be conducted in 2 years,19,4.0,4.0,4.0,3.0,4.0,3.0,3.0,4.0,4.0,3.0,3.0,4.0,5.0,3.0,3.0,4.0,4.0,4.0,4.0,,N1622,43.7619582699,-79.3238669393,318966.436,4846680.805
131459,4154850,2017.0,2021,1977.0,TCHC,16,Don Valley East,1420 VICTORIA PARK AVE,10,330,2021-04-19,77,Evaluation needs to be conducted in 2 years,19,4.0,4.0,4.0,3.0,4.0,4.0,4.0,4.0,4.0,,3.0,3.0,4.0,4.0,4.0,4.0,4.0,4.0,4.0,4.0,N1631,43.721471797700005,-79.3024586823,320700.892,4842186.871
131460,4152762,2018.0,2021,1963.0,PRIVATE,21,Scarborough Centre,25 TRUDELLE ST,6,66,2021-04-19,60,Evaluation needs to be conducted in 1 year,18,4.0,3.0,3.0,3.0,2.0,2.0,3.0,3.0,3.0,,2.0,2.0,3.0,4.0,3.0,3.0,3.0,4.0,4.0,,E2135,43.7393268153,-79.2437802418,325412.352,4844257.077
131461,4156388,2018.0,2021,1963.0,PRIVATE,21,Scarborough Centre,35 TRUDELLE ST,6,84,2021-04-19,80,Evaluation needs to be conducted in 2 years,18,5.0,3.0,3.0,4.0,5.0,4.0,5.0,4.0,4.0,,3.0,5.0,5.0,4.0,4.0,3.0,3.0,4.0,4.0,,E2135,43.738969517,-79.24334499300001,325510.51,4844207.261
131462,4156387,2018.0,2021,1963.0,PRIVATE,21,Scarborough Centre,45 TRUDELLE ST,6,66,2021-04-19,81,Evaluation needs to be conducted in 3 years,19,5.0,3.0,3.0,5.0,5.0,5.0,5.0,4.0,4.0,4.0,3.0,5.0,5.0,4.0,4.0,3.0,3.0,4.0,3.0,,E2135,43.739359678999996,-79.24262709999999,325530.477,4844213.33
131463,4154968,2017.0,2021,1983.0,TCHC,12,Toronto-St. Paul's,154 VAUGHAN RD,7,51,2021-04-19,83,Evaluation needs to be conducted in 3 years,18,4.0,4.0,5.0,4.0,4.0,4.0,4.0,4.0,4.0,,4.0,5.0,5.0,4.0,4.0,4.0,4.0,4.0,4.0,,S1229,43.685529080900004,-79.4222487062,311052.811,4838177.827
131464,4153300,2017.0,2021,1992.0,SOCIAL HOUSING,12,Toronto-St. Paul's,155 KENDAL AVE,5,59,2021-04-19,84,Evaluation needs to be conducted in 3 years,18,4.0,4.0,5.0,5.0,5.0,4.0,5.0,4.0,4.0,,3.0,4.0,5.0,4.0,4.0,4.0,,4.0,4.0,4.0,S1236,43.676219378199995,-79.4099056613,312049.04600000003,4837144.538
131465,4153008,2017.0,2021,1900.0,PRIVATE,4,Parkdale-High Park,1504 KING ST W,3,15,2021-04-19,63,Evaluation needs to be conducted in 1 year,14,2.0,3.0,3.0,3.0,3.0,4.0,,2.0,,,4.0,4.0,3.0,3.0,4.0,3.0,,3.0,,,S0436,43.636665656800005,-79.4404917741,309585.93,4832748.153
131466,4813513,,2021,,TCHC,13,Toronto Centre,50 REGENT PARK BLVD,9,155,2021-04-19,94,Evaluation needs to be conducted in 3 years,19,5.0,5.0,5.0,4.0,5.0,5.0,4.0,4.0,5.0,,5.0,4.0,5.0,4.0,4.0,5.0,5.0,5.0,5.0,5.0,S1330,,,315935.106,4835284.625
131467,4153917,2017.0,2021,1918.0,PRIVATE,12,Toronto-St. Paul's,58 ORIOLE GDNS,4,13,2021-04-19,75,Evaluation needs to be conducted in 2 years,15,3.0,4.0,5.0,3.0,4.0,3.0,,4.0,,4.0,3.0,4.0,5.0,3.0,4.0,3.0,,4.0,,,S1232,43.6906375287,-79.4001694255,312832.248,4838747.262
131468,4154004,2017.0,2021,1930.0,PRIVATE,12,Toronto-St. Paul's,484 ORIOLE PKWY,3,18,2021-04-19,75,Evaluation needs to be conducted in 2 years,17,3.0,4.0,5.0,3.0,3.0,4.0,,4.0,,4.0,3.0,4.0,5.0,4.0,3.0,4.0,3.0,4.0,4.0,,S1227,43.70424134939999,-79.406228883,312342.047,4840258.076
131469,4286300,2018.0,2021,2005.0,SOCIAL HOUSING,13,Toronto Centre,270 MILAN ST,3,30,2021-04-19,80,Evaluation needs to be conducted in 2 years,18,4.0,4.0,4.0,4.0,3.0,4.0,4.0,4.0,4.0,,4.0,4.0,5.0,4.0,3.0,4.0,,5.0,4.0,4.0,S1329,43.658372351000004,-79.36784953600001,315438.658,4835180.679
131470,4329037,2018.0,2021,1949.0,PRIVATE,6,York Centre,16 ROSSEAU RD,3,11,2021-04-19,78,Evaluation needs to be conducted in 2 years,16,4.0,4.0,5.0,4.0,3.0,4.0,,3.0,,2.0,4.0,4.0,5.0,4.0,4.0,4.0,,4.0,4.0,,N0629,43.7422758604,-79.43772564560001,309800.425,4844481.063999999
131471,4153373,2017.0,2021,1929.0,PRIVATE,12,Toronto-St. Paul's,2 CLARENDON AVE,4,41,2021-04-19,99,Evaluation needs to be conducted in 3 years,19,5.0,5.0,5.0,5.0,5.0,5.0,,5.0,5.0,5.0,5.0,5.0,5.0,5.0,5.0,5.0,4.0,5.0,5.0,5.0,S1237,43.6835915113,-79.4007570137,312785.791,4837964.405
131472,4152794,2017.0,2021,1970.0,TCHC,20,Scarborough Southwest,140 ADANAC DR,16,306,2021-04-19,82,Evaluation needs to be conducted in 3 years,19,4.0,4.0,5.0,4.0,4.0,5.0,4.0,3.0,4.0,,4.0,4.0,5.0,4.0,4.0,4.0,4.0,4.0,4.0,4.0,E2027,43.740673131,-79.2269582619,326777.047,4844337.194
131473,4154495,2018.0,2021,1991.0,SOCIAL HOUSING,8,Eglinton-Lawrence,3010 DUFFERIN ST,10,202,2021-04-19,85,Evaluation needs to be conducted in 3 years,17,5.0,4.0,5.0,5.0,4.0,5.0,4.0,4.0,4.0,,4.0,4.0,5.0,3.0,4.0,4.0,,4.0,4.0,,N0826,43.711870888199996,-79.4549955166,308411.192,4841102.335
131474,4154494,2018.0,2021,1983.0,SOCIAL HOUSING,8,Eglinton-Lawrence,3050 DUFFERIN ST,14,258,2021-04-19,75,Evaluation needs to be conducted in 2 years,19,4.0,4.0,5.0,4.0,3.0,3.0,3.0,3.0,4.0,,3.0,4.0,5.0,4.0,4.0,4.0,3.0,4.0,3.0,4.0,N0826,43.7131568657,-79.4551622078,308397.684,4841245.195
131475,4155594,2017.0,2021,1968.0,TCHC,11,University-Rosedale,250 DAVENPORT RD,25,460,2021-04-19,78,Evaluation needs to be conducted in 2 years,19,4.0,4.0,4.0,4.0,3.0,4.0,3.0,4.0,4.0,,4.0,4.0,5.0,4.0,3.0,3.0,4.0,4.0,5.0,4.0,S1127,43.6748505579,-79.3982594579,312988.295,4836993.517
131476,4155820,2017.0,2021,1979.0,PRIVATE,11,University-Rosedale,235 BLOOR ST E,28,479,2021-04-18,89,Evaluation needs to be conducted in 3 years,19,5.0,5.0,5.0,3.0,4.0,4.0,5.0,5.0,5.0,4.0,4.0,5.0,5.0,4.0,4.0,4.0,,4.0,5.0,5.0,S1137,43.671276801400005,-79.3809034624,314388.38300000003,4836598.4
131477,4155578,2017.0,2021,1969.0,TCHC,24,Scarborough-Guildwood,2190 ELLESMERE RD,16,180,2021-04-17,75,Evaluation needs to be conducted in 2 years,20,4.0,3.0,4.0,3.0,4.0,4.0,3.0,4.0,4.0,3.0,3.0,3.0,3.0,5.0,3.0,4.0,5.0,5.0,4.0,4.0,E2422,43.777855001099994,-79.23003317979999,326516.0,4848467.109
131478,4152854,2017.0,2021,1975.0,TCHC,22,Scarborough-Agincourt,2008 PHARMACY AVE,13,293,2021-04-17,83,Evaluation needs to be conducted in 3 years,19,4.0,4.0,4.0,4.0,4.0,4.0,3.0,5.0,4.0,,4.0,5.0,5.0,4.0,4.0,4.0,5.0,4.0,4.0,4.0,E2225,43.776693031,-79.319134202,319343.731,4848319.569
131479,4155579,2017.0,2021,1969.0,TCHC,24,Scarborough-Guildwood,2180 ELLESMERE RD,16,180,2021-04-16,74,Evaluation needs to be conducted in 2 years,20,3.0,4.0,4.0,3.0,3.0,4.0,3.0,4.0,4.0,3.0,3.0,3.0,5.0,3.0,4.0,4.0,5.0,4.0,4.0,4.0,E2422,43.777612123000004,-79.2311695919,326424.61,4848439.828
131480,4154414,2017.0,2021,1957.0,PRIVATE,6,York Centre,2842 KEELE ST,3,12,2021-04-16,64,Evaluation needs to be conducted in 1 year,15,3.0,3.0,3.0,3.0,3.0,3.0,,3.0,,,3.0,4.0,5.0,3.0,3.0,3.0,,3.0,3.0,,N0627,43.73086204810001,-79.4833771869,306123.66,4843211.3319999995
131481,4155115,,2021,1956.0,PRIVATE,5,York South-Weston,9 GREENTREE CRT,3,28,2021-04-16,59,Evaluation needs to be conducted in 1 year,15,2.0,3.0,4.0,3.0,3.0,4.0,,3.0,,,2.0,3.0,1.0,3.0,3.0,3.0,,4.0,3.0,,W0532,43.692147125299996,-79.4794625352,306440.017,4838910.374
131482,4154405,2017.0,2021,1993.0,TCHC,6,York Centre,1286 WILSON AVE,8,124,2021-04-16,71,Evaluation needs to be conducted in 2 years,19,4.0,4.0,3.0,3.0,3.0,4.0,4.0,3.0,4.0,,4.0,4.0,5.0,3.0,3.0,3.0,3.0,3.0,3.0,4.0,N0627,43.724294732,-79.493841391,305280.424,4842482.587
131483,4155103,2017.0,2021,1950.0,PRIVATE,5,York South-Weston,98 TRETHEWEY DR,3,10,2021-04-16,64,Evaluation needs to be conducted in 1 year,16,3.0,4.0,3.0,3.0,3.0,3.0,,3.0,,3.0,3.0,3.0,5.0,3.0,2.0,3.0,,4.0,3.0,,W0532,43.6934431734,-79.4823929149,306203.767,4839054.32
131484,4152970,2017.0,2021,1992.0,TCHC,4,Parkdale-High Park,102 TYNDALL AVE,7,54,2021-04-16,79,Evaluation needs to be conducted in 2 years,18,4.0,5.0,5.0,4.0,4.0,4.0,3.0,4.0,4.0,,4.0,4.0,5.0,3.0,4.0,4.0,3.0,3.0,4.0,,S0437,43.6366904799,-79.428980996,310514.679,4832751.594
131485,4152969,2017.0,2021,1960.0,PRIVATE,4,Parkdale-High Park,110 TYNDALL AVE,3,26,2021-04-16,75,Evaluation needs to be conducted in 2 years,16,4.0,4.0,5.0,4.0,3.0,4.0,,4.0,,4.0,4.0,3.0,5.0,3.0,3.0,3.0,,3.0,4.0,,S0437,43.6369083236,-79.42913717489999,310502.058,4832775.785
131486,4152968,2017.0,2021,1960.0,PRIVATE,4,Parkdale-High Park,112 TYNDALL AVE,3,27,2021-04-16,75,Evaluation needs to be conducted in 2 years,16,4.0,4.0,5.0,4.0,3.0,4.0,,4.0,,4.0,4.0,3.0,5.0,3.0,3.0,3.0,,3.0,4.0,,S0437,43.637071615299995,-79.4291933844,310497.50800000003,4832793.922
131487,4155682,2019.0,2021,1996.0,SOCIAL HOUSING,5,York South-Weston,338 FALSTAFF AVE,5,175,2021-04-16,86,Evaluation needs to be conducted in 3 years,20,4.0,4.0,5.0,4.0,4.0,5.0,5.0,5.0,4.0,4.0,4.0,5.0,5.0,4.0,4.0,4.0,4.0,4.0,4.0,4.0,W0522,43.720498199,-79.48286093600001,306181.501,4842073.748
131488,4154691,2017.0,2021,1955.0,PRIVATE,6,York Centre,4111 BATHURST ST,3,11,2021-04-16,64,Evaluation needs to be conducted in 1 year,16,3.0,3.0,3.0,3.0,3.0,3.0,,4.0,,3.0,3.0,3.0,5.0,3.0,3.0,3.0,,3.0,3.0,,N0630,43.746615983000005,-79.43591063699999,309945.994,4844964.303
131489,4154690,2017.0,2021,1950.0,PRIVATE,6,York Centre,4109 BATHURST ST,3,10,2021-04-16,63,Evaluation needs to be conducted in 1 year,16,3.0,3.0,3.0,3.0,3.0,3.0,,4.0,,3.0,3.0,3.0,5.0,3.0,3.0,3.0,,2.0,3.0,,N0630,43.746407389,-79.43586259199999,309949.881,4844941.132
131490,4155174,2017.0,2021,1965.0,PRIVATE,5,York South-Weston,8 CASTLETON AVE,3,17,2021-04-16,86,Evaluation needs to be conducted in 3 years,14,4.0,4.0,5.0,4.0,,5.0,,4.0,,,4.0,5.0,5.0,4.0,4.0,4.0,,4.0,4.0,,W0539,43.6691775481,-79.4863066035,305888.622,4836358.478
131491,4155181,2017.0,2021,1964.0,PRIVATE,5,York South-Weston,787 JANE ST,9,107,2021-04-16,69,Evaluation needs to be conducted in 2 years,18,3.0,3.0,4.0,3.0,3.0,4.0,3.0,4.0,4.0,,3.0,4.0,5.0,4.0,3.0,3.0,3.0,3.0,3.0,,W0539,43.6734652134,-79.4937789732,305286.007,4836834.748
131492,4155280,2017.0,2021,1952.0,PRIVATE,3,Etobicoke-Lakeshore,164 BERRY RD,3,27,2021-04-15,69,Evaluation needs to be conducted in 2 years,17,4.0,4.0,3.0,4.0,4.0,4.0,,3.0,,3.0,4.0,3.0,3.0,3.0,3.0,3.0,4.0,3.0,4.0,,W0327,43.636923601199996,-79.4910603874,305505.601,4832775.234
131493,4153966,2017.0,2021,1953.0,PRIVATE,8,Eglinton-Lawrence,2100 BATHURST ST,5,62,2021-04-15,83,Evaluation needs to be conducted in 3 years,19,4.0,4.0,5.0,4.0,4.0,4.0,4.0,4.0,4.0,4.0,4.0,4.0,5.0,4.0,4.0,4.0,5.0,4.0,4.0,,N0832,43.7037994792,-79.4264104952,310715.567,4840207.343
131494,4155080,2017.0,2021,1975.0,PRIVATE,5,York South-Weston,2501 EGLINTON AVE W,4,25,2021-04-15,80,Evaluation needs to be conducted in 2 years,18,4.0,4.0,5.0,4.0,4.0,5.0,,4.0,4.0,3.0,4.0,5.0,5.0,3.0,4.0,4.0,3.0,4.0,3.0,,W0537,43.6910731495,-79.469713055,307225.981,4838791.27
131495,4153968,2017.0,2021,1985.0,TCHC,8,Eglinton-Lawrence,145 ELM RIDGE DR,9,53,2021-04-15,76,Evaluation needs to be conducted in 2 years,18,4.0,3.0,5.0,3.0,3.0,4.0,3.0,4.0,4.0,,4.0,4.0,4.0,3.0,4.0,4.0,4.0,4.0,4.0,,N0832,43.7025767096,-79.4383002971,309757.376,4840070.68
131496,4155803,2017.0,2021,2012.0,TCHC,10,Spadina-Fort York,150 DAN LECKIE WAY,41,298,2021-04-15,91,Evaluation needs to be conducted in 3 years,17,5.0,5.0,5.0,4.0,5.0,4.0,5.0,4.0,3.0,,4.0,5.0,5.0,5.0,5.0,5.0,,4.0,4.0,,S1035,,,312970.465,4833094.847
131497,4155188,2017.0,2021,1954.0,PRIVATE,5,York South-Weston,2 JASPER AVE,3,22,2021-04-15,62,Evaluation needs to be conducted in 1 year,17,3.0,3.0,3.0,3.0,3.0,3.0,,3.0,,3.0,3.0,3.0,5.0,3.0,3.0,3.0,3.0,3.0,3.0,,W0535,43.6835075066,-79.4830125811,306153.977,4837950.505
131498,4285984,2017.0,2021,2009.0,TCHC,13,Toronto Centre,252 SACKVILLE ST,22,159,2021-04-15,84,Evaluation needs to be conducted in 3 years,19,4.0,4.0,4.0,4.0,4.0,5.0,4.0,4.0,4.0,,4.0,4.0,5.0,5.0,4.0,5.0,4.0,5.0,3.0,4.0,S1330,43.660500875,-79.36342677,315793.31899999996,4835425.091
131499,4155184,2017.0,2021,1972.0,PRIVATE,5,York South-Weston,1059 WESTON RD,3,14,2021-04-15,67,Evaluation needs to be conducted in 2 years,15,3.0,3.0,3.0,4.0,3.0,4.0,,4.0,,,3.0,4.0,4.0,3.0,3.0,3.0,,3.0,3.0,,W0535,43.68559996729999,-79.486207625,305896.352,4838182.921
131500,4155185,2019.0,2021,1952.0,PRIVATE,5,York South-Weston,1061 WESTON RD,3,11,2021-04-15,67,Evaluation needs to be conducted in 2 years,15,3.0,3.0,3.0,3.0,3.0,4.0,,4.0,,,3.0,4.0,5.0,3.0,3.0,3.0,,3.0,3.0,,W0535,43.6857167173,-79.48639998819999,305880.842,4838195.8889999995
131501,4154365,2017.0,2021,1955.0,PRIVATE,6,York Centre,831 WILSON AVE,3,11,2021-04-15,61,Evaluation needs to be conducted in 1 year,15,3.0,3.0,2.0,3.0,2.0,3.0,,3.0,,,3.0,4.0,5.0,3.0,3.0,3.0,,3.0,3.0,,N0632,43.731246207,-79.4630449202,307761.609,4843254.517
131502,4155090,2017.0,2021,1950.0,PRIVATE,5,York South-Weston,2 GLENHAVEN ST,4,24,2021-04-15,78,Evaluation needs to be conducted in 2 years,17,4.0,4.0,5.0,4.0,4.0,3.0,,3.0,,4.0,4.0,5.0,5.0,4.0,4.0,4.0,3.0,4.0,2.0,,W0533,43.6915635966,-79.470083716,307196.082,4838845.745
131503,4167455,2017.0,2021,2000.0,TCHC,10,Spadina-Fort York,146 FORT YORK BLVD,7,25,2021-04-15,93,Evaluation needs to be conducted in 3 years,16,5.0,5.0,5.0,4.0,4.0,4.0,5.0,4.0,4.0,,5.0,5.0,5.0,5.0,5.0,5.0,,4.0,,,S1028,43.639312743000005,-79.399107317,,
131504,4153215,2018.0,2021,1989.0,TCHC,11,University-Rosedale,25 MADISON AVE,4,12,2021-04-15,68,Evaluation needs to be conducted in 2 years,16,3.0,3.0,5.0,3.0,3.0,4.0,,4.0,,3.0,3.0,3.0,3.0,3.0,4.0,4.0,3.0,3.0,,,S1127,43.668341436000006,-79.402632539,312636.214,4836270.93
131505,4152839,2017.0,2021,1974.0,TCHC,24,Scarborough-Guildwood,4175 LAWRENCE AVE E,13,375,2021-04-15,76,Evaluation needs to be conducted in 2 years,19,3.0,3.0,4.0,4.0,3.0,4.0,3.0,5.0,4.0,,3.0,4.0,5.0,3.0,3.0,4.0,5.0,4.0,4.0,4.0,E2432,43.7672342065,-79.1888137161,329838.377,4847298.7530000005
131506,4152838,2017.0,2021,1985.0,SOCIAL HOUSING,24,Scarborough-Guildwood,4201-4203 KINGSTON RD,3,39,2021-04-15,66,Evaluation needs to be conducted in 2 years,16,3.0,4.0,3.0,3.0,3.0,3.0,,3.0,,,3.0,3.0,5.0,4.0,3.0,3.0,3.0,4.0,3.0,,E2432,43.760255326199996,-79.1959527881,329266.458,4846521.28
131507,4154443,2017.0,2021,1955.0,PRIVATE,6,York Centre,3018 KEELE ST,4,31,2021-04-15,61,Evaluation needs to be conducted in 1 year,15,3.0,3.0,3.0,3.0,3.0,3.0,,3.0,,,2.0,4.0,5.0,3.0,3.0,3.0,,3.0,2.0,,N0627,43.7375858771,-79.4850746681,305986.793,4843958.284
131508,4153036,2017.0,2021,1916.0,PRIVATE,4,Parkdale-High Park,1384 KING ST W,3,18,2021-04-15,68,Evaluation needs to be conducted in 2 years,16,3.0,4.0,4.0,3.0,3.0,3.0,,3.0,,3.0,4.0,4.0,3.0,3.0,4.0,3.0,3.0,4.0,,,S0436,43.6376046857,-79.43500911390001,310028.218,4832852.784
131509,4283407,2019.0,2021,,SOCIAL HOUSING,13,Toronto Centre,20 PALACE ST,10,108,2021-04-15,89,Evaluation needs to be conducted in 3 years,18,4.0,5.0,5.0,5.0,4.0,5.0,4.0,4.0,4.0,,4.0,4.0,5.0,5.0,4.0,5.0,,4.0,5.0,4.0,S1336,43.653784814,-79.356665413,316346.038,4834659.18
131510,4155581,2017.0,2021,1971.0,TCHC,24,Scarborough-Guildwood,90 MORNELLE CRT,13,198,2021-04-15,74,Evaluation needs to be conducted in 2 years,19,4.0,4.0,4.0,3.0,4.0,3.0,3.0,4.0,4.0,,3.0,4.0,5.0,3.0,3.0,3.0,4.0,4.0,4.0,4.0,E2423,43.787815708000004,-79.196116635,329241.848,4849584.106000001
131511,4156324,2017.0,2021,1972.0,PRIVATE,7,Humber River-Black Creek,2000 SHEPPARD AVE W,20,266,2021-04-15,79,Evaluation needs to be conducted in 2 years,20,4.0,4.0,4.0,4.0,4.0,4.0,4.0,4.0,4.0,3.0,3.0,4.0,5.0,3.0,4.0,4.0,4.0,4.0,4.0,5.0,W0729,43.73964798,-79.514852262,303547.403,4844129.347
131512,4152693,2017.0,2021,1969.0,PRIVATE,21,Scarborough Centre,15 ROSEMOUNT DR,7,72,2021-04-15,76,Evaluation needs to be conducted in 2 years,19,5.0,3.0,3.0,4.0,5.0,4.0,5.0,3.0,5.0,5.0,3.0,3.0,4.0,3.0,4.0,4.0,3.0,3.0,3.0,,E2133,43.7322696922,-79.2741030573,322982.267,4843392.233
131513,4418699,2021.0,2021,1955.0,PRIVATE,6,York Centre,7 ROSSEAU RD,3,11,2021-04-15,75,Evaluation needs to be conducted in 2 years,16,4.0,4.0,5.0,3.0,3.0,4.0,,3.0,,3.0,3.0,4.0,5.0,4.0,4.0,4.0,,4.0,3.0,,N0629,43.7419930803,-79.4364254778,309905.166,4844449.718
131514,4257261,2017.0,2021,1979.0,PRIVATE,13,Toronto Centre,20 CARLTON ST,16,216,2021-04-14,81,Evaluation needs to be conducted in 3 years,19,3.0,4.0,4.0,4.0,4.0,4.0,4.0,4.0,4.0,,4.0,4.0,5.0,4.0,4.0,4.0,5.0,4.0,4.0,4.0,S1326,43.661630396999996,-79.3815767552,314335.61100000003,4835526.693
131515,4154264,2017.0,2021,1969.0,TCHC,7,Humber River-Black Creek,35 SHOREHAM DR,11,323,2021-04-14,87,Evaluation needs to be conducted in 3 years,19,4.0,4.0,5.0,4.0,5.0,5.0,4.0,4.0,5.0,,4.0,5.0,5.0,4.0,4.0,4.0,4.0,4.0,5.0,4.0,W0725,43.768780728,-79.518663474,303286.907,4847413.625
131516,4156154,2017.0,2021,1987.0,TCHC,10,Spadina-Fort York,111 CHESTNUT ST,15,144,2021-04-14,75,Evaluation needs to be conducted in 2 years,17,3.0,3.0,5.0,4.0,4.0,4.0,3.0,3.0,4.0,,4.0,4.0,5.0,3.0,4.0,4.0,,4.0,3.0,,S1025,43.654837970500004,-79.3855802239,314013.80100000004,4834771.619
131517,4155157,2017.0,2021,1963.0,PRIVATE,5,York South-Weston,29 CHURCH ST,10,63,2021-04-14,74,Evaluation needs to be conducted in 2 years,17,3.0,4.0,4.0,3.0,3.0,3.0,,4.0,4.0,,3.0,3.0,5.0,5.0,4.0,4.0,4.0,4.0,3.0,,W0524,43.7037504751,-79.52345642899999,302893.972,4840199.653
131518,4155279,2017.0,2021,1952.0,PRIVATE,3,Etobicoke-Lakeshore,162 BERRY RD,4,39,2021-04-14,80,Evaluation needs to be conducted in 2 years,18,4.0,4.0,4.0,3.0,4.0,4.0,,4.0,,4.0,4.0,4.0,5.0,4.0,4.0,4.0,4.0,4.0,4.0,4.0,W0327,43.637123338900004,-79.4904689294,305553.339,4832797.429
131519,4155567,2017.0,2021,1972.0,TCHC,21,Scarborough Centre,1021 BIRCHMOUNT RD,11,236,2021-04-14,77,Evaluation needs to be conducted in 2 years,19,4.0,3.0,5.0,3.0,4.0,5.0,3.0,5.0,4.0,,3.0,3.0,3.0,5.0,3.0,3.0,5.0,5.0,3.0,4.0,E2133,43.73164966,-79.27790394600001,322675.98699999996,4843323.473999999
131520,4156756,2017.0,2021,1989.0,TCHC,5,York South-Weston,2468 EGLINTON AVE W,21,210,2021-04-14,67,Evaluation needs to be conducted in 2 years,19,3.0,3.0,4.0,4.0,3.0,3.0,4.0,3.0,4.0,,3.0,4.0,5.0,3.0,3.0,3.0,3.0,3.0,3.0,3.0,W0533,43.69202835,-79.468140737,307352.43,4838898.385
131521,4153044,2017.0,2021,1980.0,TCHC,4,Parkdale-High Park,300 DUFFERIN ST,7,114,2021-04-14,82,Evaluation needs to be conducted in 3 years,18,4.0,4.0,4.0,3.0,5.0,4.0,5.0,4.0,4.0,,4.0,4.0,5.0,4.0,3.0,4.0,4.0,5.0,4.0,,S0436,43.6395518816,-79.4281871995,310578.464,4833069.527
